sep=,
CUSTOM.date [local],CUSTOM.updateTime [local],OSD.flyTime,OSD.flyTime [s],OSD.latitude,OSD.longitude,OSD.height [ft],OSD.heightMax [ft],OSD.vpsHeight [ft],OSD.altitude [ft],OSD.mileage [ft],OSD.hSpeed [MPH],OSD.hSpeedMax [MPH],OSD.xSpeed [MPH],OSD.xSpeedMax [MPH],OSD.ySpeed [MPH],OSD.ySpeedMax [MPH],OSD.zSpeed [MPH],OSD.zSpeedMax [MPH],OSD.pitch,OSD.roll,OSD.yaw,OSD.yaw [360],OSD.directionOfTravel,OSD.flycState,OSD.flycCommand,OSD.flightAction,OSD.gpsNum,OSD.gpsLevel,OSD.isGPSUsed,OSD.nonGPSCause,OSD.droneType,OSD.isSwaveWork,OSD.waveError,OSD.goHomeStatus,OSD.batteryType,OSD.ctrlDevice,OSD.isOnGround,OSD.isMotorOn,OSD.isMotorBlocked,OSD.motorStartFailedCause,OSD.motorFailReason,OSD.isImuPreheated,OSD.imuInitFailReason,OSD.isAcceletorOverRange,OSD.isBarometerDeadInAir,OSD.isCompassError,OSD.isGoHomeHeightModified,OSD.canIOCWork,OSD.isNotEnoughForce,OSD.isOutOfLimit,OSD.isPropellerCatapult,OSD.isVibrating,OSD.isVisionUsed,OSD.voltageWarning,GIMBAL.mode,GIMBAL.pitch,GIMBAL.roll,GIMBAL.yaw,GIMBAL.yaw [360],GIMBAL.isPitchAtLimit,GIMBAL.isRollAtLimit,GIMBAL.isYawAtLimit,GIMBAL.isStuck,CAMERA.isPhoto,CAMERA.isVideo,CAMERA.filename,CAMERA.sdCardIsInserted,CAMERA.sdCardState,RC.downlinkSignal,RC.uplinkSignal,RC.aileron,RC.elevator,RC.throttle,RC.rudder,RC.mode,RC.goHomeDepressed,RC.recordDepressed,RC.shutterDepressed,RC.playbackDepressed,RC.wheelDepressed,RC.wheelOffset,RC.custom1Depressed,RC.custom2Depressed,RC.custom3Depressed,RC.custom4Depressed,BATTERY.chargeLevel,BATTERY.currentPV [V],BATTERY.currentCapacity [mAh],BATTERY.fullCapacity [mAh],BATTERY.voltage [V],BATTERY.isCellVoltageEstimated,BATTERY.cellVoltage1 [V],BATTERY.cellVoltage2 [V],BATTERY.maxCellVoltageDeviation,BATTERY.isCellVoltageDeviationHigh,BATTERY.isVoltageLow,BATTERY.current [A],BATTERY.temperature [F],BATTERY.minTemperature [F],BATTERY.maxTemperature [F],BATTERY.usefulTime [s],BATTERY.goHomeTime [s],BATTERY.landTime [s],BATTERY.goHomeBattery,BATTERY.landBattery,BATTERY.safeFlyRadius,BATTERY.volumeConsume,BATTERY.status,BATTERY.goHomeStatus,BATTERY.goHomeCountdown,BATTERY.lowWarning,BATTERY.lowWarningGoHome,BATTERY.seriousLowWarning,BATTERY.seriousLowWarningLanding,BATTERY.timesCharged,MC.failSafeAction,MC.isObstacleAvoidanceEnabled,MC.isCollisionAvoidanceEnabled,MC.isRthObstacleAvoidanceEnabled,MC.isBraking,MC.isAvoidingObstacle,MC.isAvoidingActiveObstacle,MC.isAscentLimitedByObstacle,MC.isLandingConfirmationNeeded,MC.atLowAltitudeLimit,MC.atDistanceLimit,MC.atAirportAltitudeLimit,MC.atAirportBoundary,HOME.latitude,HOME.longitude,HOME.distance [ft],HOME.height [ft],HOME.heightLimit [ft],HOME.isHomeRecord,HOME.goHomeMode,HOME.aircraftHeadDirection,HOME.isDynamicHomePointEnabled,HOME.isReachedLimitDistance,HOME.isReachedLimitHeight,HOME.isCompassCalibrating,HOME.compassCalibrationState,HOME.isMultipleFlightModeEnabled,HOME.isBeginnerMode,HOME.isIOCEnabled,HOME.iocMode,HOME.goHomeHeight [ft],HOME.courseLockAngle,HOME.forceLandingHeight [ft],HOME.dataRecorderFileIndex,WEATHER.windDirection,WEATHER.windRelativeDirection,WEATHER.windSpeed [MPH],WEATHER.maxWindSpeed [MPH],WEATHER.windStrength,WEATHER.isFacingWind,WEATHER.isFlyingIntoWind,RECOVER.appType,RECOVER.appVersion,RECOVER.aircraftName,RECOVER.aircraftSerial,RECOVER.cameraSerial,RECOVER.rcSerial,RECOVER.batterySerial,DETAILS.totalTime [s],DETAILS.totalDistance [ft],DETAILS.maxHeight [ft],DETAILS.maxHorizontalSpeed [MPH],DETAILS.maxVerticalSpeed [MPH],DETAILS.photoNum,DETAILS.videoTime [s],DETAILS.aircraftName,DETAILS.aircraftSerial,DETAILS.cameraSerial,DETAILS.rcSerial,DETAILS.batterySerial,DETAILS.appName,DETAILS.appType,DETAILS.appVersion,DETAILS.guid,SERIAL.flightController,SERIAL.camera,SERIAL.gimbal,SERIAL.rc,SERIAL.battery,SERIAL.battery2,APPGPS.latitude,APPGPS.longitude,APPGPS.accuracy,APP.tip,APP.warning
6/11/2026,1:51:03.50 PM,0m 0.0s,0.0,32.7335769996517,35.0402789293033,0,0,0.3,1658,0,0,0,0,0,0,0,0,0,-0.5,0,60.2,60.2,,P-GPS,Auto Fly,,25,5,True,,Mini 4 Pro,False,False,,Smart,RC,True,True,False,,,True,,False,False,False,False,False,False,False,False,False,False,0,Follow Yaw,0,0,44,44,False,False,False,False,False,False,,True,Card Too Slow,,,1024,1024,1024,1024,,False,False,False,False,False,0,False,False,False,False,90,8.09,2939,3291,8.09,True,4.046,4.046,,False,False,1.063,107.4,107.4,107.4,,,,,,,,,Idle,,,,,,9,Go Home,False,False,False,False,False,False,False,False,False,False,False,False,32.7329010104334,35.0398330496645,282.0,1710.3,656.1,True,1,1,False,False,False,False,,True,False,False,,328,,16.4,110,,,,,Calm,False,False,,1.13.10,DJI Mini 4 Pro,1581F6Z9C239E003,6TVFL8Q0M2X1GK,6UZBL9J021036E,5LRXL9FDG1010E,345.9,1.7,16.4,18.285642,4.250186,0,24195,DJI Mini 4 Pro,1581F6Z9C239E003,6TVFL8Q0M2X1GK,6UZBL9J021036E,5LRXL9FDG1010E,DJI Fly,,1.13.10,D1DEE6F5-D33D-F456-DD0E-BCB9DE88D875,1581F6Z9C239E0037R3J,6TVFL8Q0M2X1GK,,6UZBL9J021036E,5LRXL9FDG1010E,,,,,Data Recorder File Index is 110.; Set Return to Home (RTH) altitude to 100 m (328 ft).; Set maximum flight altitude to 200 m (656 ft).; Flight mode changed to P-GPS.,
6/11/2026,1:51:03.61 PM,0m 0.1s,0.1,32.7335769974583,35.040278936881,0,0,0.3,1658,0,0,0,0,0,0,0,0,0,-0.5,0,60.2,60.2,,Starting Motors,Auto Fly,,25,5,True,,Mini 4 Pro,False,False,,Smart,RC,True,True,False,,,True,,False,False,False,False,False,False,False,False,False,False,0,Follow Yaw,0,0,44,44,False,False,False,False,False,False,,True,Card Too Slow,,,1024,1024,1024,1024,,False,False,False,False,False,0,False,False,False,False,90,8.09,2939,3291,8.09,True,4.046,4.046,,False,False,1.063,107.4,107.4,107.4,,,,,,,,,Idle,,,,,,9,Go Home,False,False,False,False,False,False,False,False,False,False,False,False,32.7329010104334,35.0398330496645,282.0,1710.3,656.1,True,1,1,False,False,False,False,,True,False,False,,328,,16.4,110,,,,,Calm,False,False,,1.13.10,DJI Mini 4 Pro,1581F6Z9C239E003,6TVFL8Q0M2X1GK,6UZBL9J021036E,5LRXL9FDG1010E,345.9,1.7,16.4,18.285642,4.250186,0,24195,DJI Mini 4 Pro,1581F6Z9C239E003,6TVFL8Q0M2X1GK,6UZBL9J021036E,5LRXL9FDG1010E,DJI Fly,,1.13.10,D1DEE6F5-D33D-F456-DD0E-BCB9DE88D875,1581F6Z9C239E0037R3J,6TVFL8Q0M2X1GK,,6UZBL9J021036E,5LRXL9FDG1010E,,,,,Aircraft not in flight. Vision systems and obstacle avoidance disabled (Code: 180059).; Flight mode changed to Starting Motors.,Possible gimbal attitude error. Go to Settings to calibrate gimbal (Code: 40027).; SD card speed low. Normal use may be affected. Replace SD card (Code: 1C000402).
6/11/2026,1:51:03.71 PM,0m 0.2s,0.2,32.7335770132915,35.0402789546031,0,0,0.3,1658,0,0,0,0,0,0,0,0,0,-0.5,0,60.3,60.3,,Starting Motors,Auto Fly,,25,5,True,,Mini 4 Pro,False,False,,Smart,RC,True,True,False,,,True,,False,False,False,False,False,False,False,False,False,False,0,Follow Yaw,0,0,44,44,False,False,False,False,False,False,,True,Card Too Slow,,,1024,1024,1024,1024,,False,False,False,False,False,0,False,False,False,False,90,8.091,2939,3291,8.091,False,4.052,4.04,0.012,False,False,1.063,107.4,107.4,107.4,,,,,,,,,Idle,,,,,,9,Go Home,False,False,False,False,False,False,False,False,False,False,False,False,32.7329010104334,35.0398330496645,282.0,1710.3,656.1,True,1,1,False,False,False,False,,True,False,False,,328,,16.4,110,,,,,Calm,False,False,,1.13.10,DJI Mini 4 Pro,1581F6Z9C239E003,6TVFL8Q0M2X1GK,6UZBL9J021036E,5LRXL9FDG1010E,345.9,1.7,16.4,18.285642,4.250186,0,24195,DJI Mini 4 Pro,1581F6Z9C239E003,6TVFL8Q0M2X1GK,6UZBL9J021036E,5LRXL9FDG1010E,DJI Fly,,1.13.10,D1DEE6F5-D33D-F456-DD0E-BCB9DE88D875,1581F6Z9C239E0037R3J,6TVFL8Q0M2X1GK,,6UZBL9J021036E,5LRXL9FDG1010E,,,,,,
6/11/2026,1:51:03.81 PM,0m 0.3s,0.3,32.7335770058204,35.0402789790474,0,0,0.3,1658,0,0,0,0,0,0,0,0,0,-0.5,0,60,60,,Starting Motors,Auto Fly,,25,5,True,,Mini 4 Pro,False,False,,Smart,RC,True,True,False,,,True,,False,False,False,False,False,False,False,False,False,False,0,Follow Yaw,0,0,44,44,False,False,False,False,False,False,,True,Card Too Slow,,,1024,1024,1024,1024,,False,False,False,False,False,0,False,False,False,False,90,8.091,2939,3291,8.091,False,4.052,4.04,0.012,False,False,1.063,107.4,107.4,107.4,,,,,,,,,Idle,,,,,,9,Go Home,False,False,False,False,False,False,False,False,False,False,False,False,32.7329010104334,35.0398330496645,282.0,1710.3,656.1,True,1,1,False,False,False,False,,True,False,False,,328,,16.4,110,,,,,Calm,False,False,,1.13.10,DJI Mini 4 Pro,1581F6Z9C239E003,6TVFL8Q0M2X1GK,6UZBL9J021036E,5LRXL9FDG1010E,345.9,1.7,16.4,18.285642,4.250186,0,24195,DJI Mini 4 Pro,1581F6Z9C239E003,6TVFL8Q0M2X1GK,6UZBL9J021036E,5LRXL9FDG1010E,DJI Fly,,1.13.10,D1DEE6F5-D33D-F456-DD0E-BCB9DE88D875,1581F6Z9C239E0037R3J,6TVFL8Q0M2X1GK,,6UZBL9J021036E,5LRXL9FDG1010E,,,,,,
6/11/2026,1:51:03.91 PM,0m 0.4s,0.4,32.7335769872456,35.0402790141656,0,0,0.3,1658,0,0,0,0,0,0,0,0,0,-0.6,0,60.2,60.2,,Starting Motors,Auto Fly,,25,5,True,,Mini 4 Pro,True,False,,Smart,RC,True,True,False,,,True,,False,False,False,False,False,False,False,False,False,False,0,Follow Yaw,0,0,44,44,False,False,False,False,False,False,,True,Card Too Slow,,,1024,1024,1024,1024,,False,False,False,False,False,0,False,False,False,False,90,8.091,2939,3291,8.091,False,4.052,4.04,0.012,False,False,1.063,107.4,107.4,107.4,,,,,,,,,Idle,,,,,,9,Go Home,False,False,False,False,False,False,False,False,False,False,False,False,32.7329010104334,35.0398330496645,282.0,1710.3,656.1,True,1,1,False,False,False,False,,True,False,False,,328,,16.4,110,,,,,Calm,False,False,,1.13.10,DJI Mini 4 Pro,1581F6Z9C239E003,6TVFL8Q0M2X1GK,6UZBL9J021036E,5LRXL9FDG1010E,345.9,1.7,16.4,18.285642,4.250186,0,24195,DJI Mini 4 Pro,1581F6Z9C239E003,6TVFL8Q0M2X1GK,6UZBL9J021036E,5LRXL9FDG1010E,DJI Fly,,1.13.10,D1DEE6F5-D33D-F456-DD0E-BCB9DE88D875,1581F6Z9C239E0037R3J,6TVFL8Q0M2X1GK,,6UZBL9J021036E,5LRXL9FDG1010E,,,,,,
6/11/2026,1:51:04.01 PM,0m 0.5s,0.5,32.7335769634616,35.0402790474913,0,0,0.3,1658,0,0,0,0,0,0,0,0,0,-0.6,0,60.1,60.1,,Starting Motors,Auto Fly,,25,5,True,,Mini 4 Pro,True,False,,Smart,RC,True,True,False,,,True,,False,False,False,False,False,False,False,False,False,False,0,Follow Yaw,0,0,44,44,False,False,False,False,False,False,,True,Card Too Slow,,,1024,1024,1024,1024,,False,False,False,False,False,0,False,False,False,False,90,8.091,2938,3291,8.091,False,4.052,4.04,0.012,False,False,1.129,107.6,107.4,107.6,,,,,,,,,Idle,,,,,,9,Go Home,False,False,False,False,False,False,False,False,False,False,False,False,32.7329010104334,35.0398330496645,282.0,1710.3,656.1,True,1,1,False,False,False,False,,True,False,False,,328,,16.4,110,,,,,Calm,False,False,,1.13.10,DJI Mini 4 Pro,1581F6Z9C239E003,6TVFL8Q0M2X1GK,6UZBL9J021036E,5LRXL9FDG1010E,345.9,1.7,16.4,18.285642,4.250186,0,24195,DJI Mini 4 Pro,1581F6Z9C239E003,6TVFL8Q0M2X1GK,6UZBL9J021036E,5LRXL9FDG1010E,DJI Fly,,1.13.10,D1DEE6F5-D33D-F456-DD0E-BCB9DE88D875,1581F6Z9C239E0037R3J,6TVFL8Q0M2X1GK,,6UZBL9J021036E,5LRXL9FDG1010E,,,,,,
6/11/2026,1:51:04.11 PM,0m 0.6s,0.6,32.7335769790892,35.0402790222322,0,0,0.3,1658,0,0,0,0,0,0,0,0,0,-0.6,0,60.3,60.3,,Starting Motors,Auto Fly,,25,5,True,,Mini 4 Pro,True,False,,Smart,RC,True,True,False,,,True,,False,False,False,False,False,False,False,False,False,False,0,Follow Yaw,0,0,44,44,False,False,False,False,False,False,,True,Card Too Slow,,,1024,1024,1024,1024,,False,False,False,False,False,0,False,False,False,False,90,8.091,2938,3291,8.091,False,4.052,4.04,0.012,False,False,1.129,107.6,107.4,107.6,,,,,,,,,Idle,,,,,,9,Go Home,False,False,False,False,False,False,False,False,False,False,False,False,32.7329010104334,35.0398330496645,282.0,1710.3,656.1,True,1,1,False,False,False,False,,True,False,False,,328,,16.4,110,,,,,Calm,False,False,,1.13.10,DJI Mini 4 Pro,1581F6Z9C239E003,6TVFL8Q0M2X1GK,6UZBL9J021036E,5LRXL9FDG1010E,345.9,1.7,16.4,18.285642,4.250186,0,24195,DJI Mini 4 Pro,1581F6Z9C239E003,6TVFL8Q0M2X1GK,6UZBL9J021036E,5LRXL9FDG1010E,DJI Fly,,1.13.10,D1DEE6F5-D33D-F456-DD0E-BCB9DE88D875,1581F6Z9C239E0037R3J,6TVFL8Q0M2X1GK,,6UZBL9J021036E,5LRXL9FDG1010E,,,,,,
6/11/2026,1:51:04.21 PM,0m 0.7s,0.7,32.7335769342629,35.0402790424395,0,0,0.3,1658,0,0,0,0,0,0,0,0,0,-0.6,0,60.2,60.2,,Starting Motors,Auto Fly,,25,5,True,,Mini 4 Pro,True,False,,Smart,RC,True,True,False,,,True,,False,False,False,False,False,False,False,False,False,False,0,Follow Yaw,0,0,44,44,False,False,False,False,False,False,,True,Card Too Slow,100,,1024,1024,1024,1024,,False,False,False,False,False,0,False,False,False,False,90,8.091,2938,3291,8.091,False,4.052,4.04,0.012,False,False,1.129,107.6,107.4,107.6,,,,,,,,,Idle,,,,,,9,Go Home,False,False,False,False,False,False,False,False,False,False,False,False,32.7329010104334,35.0398330496645,282.0,1710.3,656.1,True,1,1,False,False,False,False,,True,False,False,,328,,16.4,110,,,,,Calm,False,False,,1.13.10,DJI Mini 4 Pro,1581F6Z9C239E003,6TVFL8Q0M2X1GK,6UZBL9J021036E,5LRXL9FDG1010E,345.9,1.7,16.4,18.285642,4.250186,0,24195,DJI Mini 4 Pro,1581F6Z9C239E003,6TVFL8Q0M2X1GK,6UZBL9J021036E,5LRXL9FDG1010E,DJI Fly,,1.13.10,D1DEE6F5-D33D-F456-DD0E-BCB9DE88D875,1581F6Z9C239E0037R3J,6TVFL8Q0M2X1GK,,6UZBL9J021036E,5LRXL9FDG1010E,,,,,,
6/11/2026,1:51:04.31 PM,0m 0.8s,0.8,32.7335770119206,35.0402790449246,0,0,0.3,1658,0,0,0,0,0,0,0,0,0,-0.6,0,60.3,60.3,,Starting Motors,Auto Fly,,25,5,True,,Mini 4 Pro,True,False,,Smart,RC,True,True,False,,,True,,False,False,False,False,False,False,False,False,False,False,0,Follow Yaw,0,0,44,44,False,False,False,False,False,False,,True,Card Too Slow,100,100,1024,1024,1024,1024,,False,False,False,False,False,0,False,False,False,False,90,8.091,2938,3291,8.091,False,4.052,4.04,0.012,False,False,1.129,107.6,107.4,107.6,,,,,,,,,Idle,,,,,,9,Go Home,False,False,False,False,False,False,False,False,False,False,False,False,32.7329010104334,35.0398330496645,282.0,1710.3,656.1,True,1,1,False,False,False,False,,True,False,False,,328,,16.4,110,,,,,Calm,False,False,,1.13.10,DJI Mini 4 Pro,1581F6Z9C239E003,6TVFL8Q0M2X1GK,6UZBL9J021036E,5LRXL9FDG1010E,345.9,1.7,16.4,18.285642,4.250186,0,24195,DJI Mini 4 Pro,1581F6Z9C239E003,6TVFL8Q0M2X1GK,6UZBL9J021036E,5LRXL9FDG1010E,DJI Fly,,1.13.10,D1DEE6F5-D33D-F456-DD0E-BCB9DE88D875,1581F6Z9C239E0037R3J,6TVFL8Q0M2X1GK,,6UZBL9J021036E,5LRXL9FDG1010E,,,,,,
6/11/2026,1:51:04.41 PM,0m 0.9s,0.9,32.7335770252863,35.0402790667615,0,0,0.3,1658,0.1,0,0,0,0,0,0,0,0,-0.6,0,60.2,60.2,,Starting Motors,Auto Fly,,25,5,True,,Mini 4 Pro,True,False,,Smart,RC,True,True,False,,,True,,False,False,False,False,False,False,False,False,False,False,0,Follow Yaw,0,0,44,44,False,False,False,False,False,False,,True,Card Too Slow,100,100,1024,1024,1024,1024,,False,False,False,False,False,0,False,False,False,False,90,8.091,2938,3291,8.091,False,4.052,4.04,0.012,False,False,1.129,107.6,107.4,107.6,,,,,,,,,Idle,,,,,,9,Go Home,False,False,False,False,False,False,False,False,False,False,False,False,32.7329010104334,35.0398330496645,282.0,1710.3,656.1,True,1,1,False,False,False,False,,True,False,False,,328,,16.4,110,,,,,Calm,False,False,,1.13.10,DJI Mini 4 Pro,1581F6Z9C239E003,6TVFL8Q0M2X1GK,6UZBL9J021036E,5LRXL9FDG1010E,345.9,1.7,16.4,18.285642,4.250186,0,24195,DJI Mini 4 Pro,1581F6Z9C239E003,6TVFL8Q0M2X1GK,6UZBL9J021036E,5LRXL9FDG1010E,DJI Fly,,1.13.10,D1DEE6F5-D33D-F456-DD0E-BCB9DE88D875,1581F6Z9C239E0037R3J,6TVFL8Q0M2X1GK,,6UZBL9J021036E,5LRXL9FDG1010E,,,,,,
6/11/2026,1:51:04.51 PM,0m 1.0s,1.0,32.7335770387204,35.0402789951806,0,0,0.3,1658,0.1,0,0,0,0,0,0,0,0,-0.6,0,60.2,60.2,,Starting Motors,Auto Fly,,25,5,True,,Mini 4 Pro,True,False,,Smart,RC,True,True,False,,,True,,False,False,False,False,False,False,False,False,False,False,0,Follow Yaw,0,0,44,44,False,False,False,False,False,False,,True,Card Too Slow,100,100,1024,1024,1024,1024,,False,False,False,False,False,0,False,False,False,False,90,8.091,2938,3291,8.091,False,4.052,4.04,0.012,False,False,1.129,107.6,107.4,107.6,,,,,,,,,Idle,,,,,,9,Go Home,False,False,False,False,False,False,False,False,False,False,False,False,32.7329010104334,35.0398330496645,282.0,1710.3,656.1,True,1,1,False,False,False,False,,True,False,False,,328,,16.4,110,,,,,Calm,False,False,,1.13.10,DJI Mini 4 Pro,1581F6Z9C239E003,6TVFL8Q0M2X1GK,6UZBL9J021036E,5LRXL9FDG1010E,345.9,1.7,16.4,18.285642,4.250186,0,24195,DJI Mini 4 Pro,1581F6Z9C239E003,6TVFL8Q0M2X1GK,6UZBL9J021036E,5LRXL9FDG1010E,DJI Fly,,1.13.10,D1DEE6F5-D33D-F456-DD0E-BCB9DE88D875,1581F6Z9C239E0037R3J,6TVFL8Q0M2X1GK,,6UZBL9J021036E,5LRXL9FDG1010E,,,,,,
6/11/2026,1:51:04.62 PM,0m 1.1s,1.1,32.7335770385148,35.0402790058546,0,0,0.3,1658,0.1,0,0,0,0,0,0,0,0,-0.7,0,60.2,60.2,,Starting Motors,Auto Fly,,25,5,True,,Mini 4 Pro,True,False,,Smart,RC,True,True,False,,,True,,False,False,False,False,False,False,False,False,False,False,0,Follow Yaw,0,0,44,44,False,False,False,False,False,False,,True,Card Too Slow,100,100,1024,1024,1024,1024,,False,False,False,False,False,0,False,False,False,False,90,8.091,2938,3291,8.091,False,4.052,4.04,0.012,False,False,1.129,107.6,107.4,107.6,,,,,,,,,Idle,,,,,,9,Go Home,False,False,False,False,False,False,False,False,False,False,False,False,32.7329010104334,35.0398330496645,282.0,1710.3,656.1,True,1,1,False,False,False,False,,True,False,False,,328,,16.4,110,,,,,Calm,False,False,,1.13.10,DJI Mini 4 Pro,1581F6Z9C239E003,6TVFL8Q0M2X1GK,6UZBL9J021036E,5LRXL9FDG1010E,345.9,1.7,16.4,18.285642,4.250186,0,24195,DJI Mini 4 Pro,1581F6Z9C239E003,6TVFL8Q0M2X1GK,6UZBL9J021036E,5LRXL9FDG1010E,DJI Fly,,1.13.10,D1DEE6F5-D33D-F456-DD0E-BCB9DE88D875,1581F6Z9C239E0037R3J,6TVFL8Q0M2X1GK,,6UZBL9J021036E,5LRXL9FDG1010E,,,,,,
6/11/2026,1:51:04.72 PM,0m 1.2s,1.2,32.7335770374867,35.0402789574957,0,0,0.3,1658,0.1,0,0,0,0,0,0,0,0,-0.6,0,60.2,60.2,,Starting Motors,Auto Fly,,25,5,True,,Mini 4 Pro,True,False,,Smart,RC,True,True,False,,,True,,False,False,False,False,False,False,False,False,False,False,0,Follow Yaw,0,0,44,44,False,False,False,False,False,False,,True,Card Too Slow,100,100,1024,1024,1024,1024,,False,False,False,False,False,0,False,False,False,False,90,8.047,2938,3291,8.047,False,4.034,4.013,0.021,False,False,1.129,107.6,107.4,107.6,,,,,,,,,Idle,,,,,,9,Go Home,False,False,False,False,False,False,False,False,False,False,False,False,32.7329010104334,35.0398330496645,282.0,1710.3,656.1,True,1,1,False,False,False,False,,True,False,False,,328,,16.4,110,,,,,Calm,False,False,,1.13.10,DJI Mini 4 Pro,1581F6Z9C239E003,6TVFL8Q0M2X1GK,6UZBL9J021036E,5LRXL9FDG1010E,345.9,1.7,16.4,18.285642,4.250186,0,24195,DJI Mini 4 Pro,1581F6Z9C239E003,6TVFL8Q0M2X1GK,6UZBL9J021036E,5LRXL9FDG1010E,DJI Fly,,1.13.10,D1DEE6F5-D33D-F456-DD0E-BCB9DE88D875,1581F6Z9C239E0037R3J,6TVFL8Q0M2X1GK,,6UZBL9J021036E,5LRXL9FDG1010E,,,,,,
6/11/2026,1:51:04.78 PM,0m 1.3s,1.3,32.7335770344023,35.0402789270219,0,0,0.3,1658,0.1,0,0,0,0,0,0,0,0,-0.6,0,60.2,60.2,,Starting Motors,Auto Fly,,25,5,True,,Mini 4 Pro,True,False,,Smart,RC,True,True,False,,,True,,False,False,False,False,False,False,False,False,False,False,0,Follow Yaw,0,0,44,44,False,False,False,False,False,False,,True,Card Too Slow,100,100,1024,1024,1024,1024,,False,False,False,False,False,0,False,False,False,False,90,8.047,2938,3291,8.047,False,4.034,4.013,0.021,False,False,1.129,107.6,107.4,107.6,,,,,,,,,Idle,,,,,,9,Go Home,False,False,False,False,False,False,False,False,False,False,False,False,32.7329010104334,35.0398330496645,282.0,1710.3,656.1,True,1,1,False,False,False,False,,True,False,False,,328,,16.4,110,,,,,Calm,False,False,,1.13.10,DJI Mini 4 Pro,1581F6Z9C239E003,6TVFL8Q0M2X1GK,6UZBL9J021036E,5LRXL9FDG1010E,345.9,1.7,16.4,18.285642,4.250186,0,24195,DJI Mini 4 Pro,1581F6Z9C239E003,6TVFL8Q0M2X1GK,6UZBL9J021036E,5LRXL9FDG1010E,DJI Fly,,1.13.10,D1DEE6F5-D33D-F456-DD0E-BCB9DE88D875,1581F6Z9C239E0037R3J,6TVFL8Q0M2X1GK,,6UZBL9J021036E,5LRXL9FDG1010E,,,,,,
6/11/2026,1:51:04.88 PM,0m 1.4s,1.4,32.7335770422846,35.040278946618,0,0,0.3,1658,0.1,0,0,0,0,0,0,0,0,-0.6,0,60.2,60.2,,Starting Motors,Auto Fly,,25,5,True,,Mini 4 Pro,True,False,,Smart,RC,True,True,False,,,True,,False,False,False,False,False,False,False,False,False,False,0,Follow Yaw,0,0,44,44,False,False,False,False,False,False,,True,Card Too Slow,100,100,1024,1024,1024,1024,,False,False,False,False,False,0,False,False,False,False,90,8.047,2938,3291,8.047,False,4.034,4.013,0.021,False,False,1.129,107.6,107.4,107.6,,,,,,,,,Idle,,,,,,9,Go Home,False,False,False,False,False,False,False,False,False,False,False,False,32.7329010104334,35.0398330496645,282.0,1710.3,656.1,True,1,1,False,False,False,False,,True,False,False,,328,,16.4,110,,,,,Calm,False,False,,1.13.10,DJI Mini 4 Pro,1581F6Z9C239E003,6TVFL8Q0M2X1GK,6UZBL9J021036E,5LRXL9FDG1010E,345.9,1.7,16.4,18.285642,4.250186,0,24195,DJI Mini 4 Pro,1581F6Z9C239E003,6TVFL8Q0M2X1GK,6UZBL9J021036E,5LRXL9FDG1010E,DJI Fly,,1.13.10,D1DEE6F5-D33D-F456-DD0E-BCB9DE88D875,1581F6Z9C239E0037R3J,6TVFL8Q0M2X1GK,,6UZBL9J021036E,5LRXL9FDG1010E,,,,,,
6/11/2026,1:51:04.98 PM,0m 1.5s,1.5,32.7335770901267,35.0402788561335,0,0,0.3,1658,0.1,0,0,0,0,0,0,0,0,-0.6,-0.1,60.2,60.2,,Starting Motors,Auto Fly,,25,5,True,,Mini 4 Pro,True,False,,Smart,RC,True,True,False,,,True,,False,False,False,False,False,False,False,False,False,False,0,Follow Yaw,0,0,44,44,False,False,False,False,False,False,,True,Card Too Slow,100,100,1024,1024,1024,1024,,False,False,False,False,False,0,False,False,False,False,90,8.047,2938,3291,8.047,False,4.034,4.013,0.021,False,False,2.726,107.6,107.4,107.6,,,,,,,,,Idle,,,,,,9,Go Home,False,False,False,False,False,False,False,False,False,False,False,False,32.7329010104334,35.0398330496645,282.0,1710.3,656.1,True,1,1,False,False,False,False,,True,False,False,,328,,16.4,110,,,,,Calm,False,False,,1.13.10,DJI Mini 4 Pro,1581F6Z9C239E003,6TVFL8Q0M2X1GK,6UZBL9J021036E,5LRXL9FDG1010E,345.9,1.7,16.4,18.285642,4.250186,0,24195,DJI Mini 4 Pro,1581F6Z9C239E003,6TVFL8Q0M2X1GK,6UZBL9J021036E,5LRXL9FDG1010E,DJI Fly,,1.13.10,D1DEE6F5-D33D-F456-DD0E-BCB9DE88D875,1581F6Z9C239E0037R3J,6TVFL8Q0M2X1GK,,6UZBL9J021036E,5LRXL9FDG1010E,,,,,,
6/11/2026,1:51:05.08 PM,0m 1.6s,1.6,32.7335770681934,35.0402789129257,0,0,0.3,1658,0.2,0,0,0,0,0,0,0,0,-0.6,-0.1,60.2,60.2,,Auto Takeoff,Auto Fly,,25,5,True,,Mini 4 Pro,True,False,,Smart,RC,True,True,False,,,True,,False,False,False,False,False,False,False,False,False,False,0,Follow Yaw,0,0,44,44,False,False,False,False,False,False,,True,Card Too Slow,100,100,1024,1024,1024,1024,,False,False,False,False,False,0,False,False,False,False,90,8.047,2938,3291,8.047,False,4.034,4.013,0.021,False,False,2.726,107.6,107.4,107.6,,,,,,,,,Idle,,,,,,9,Go Home,False,False,False,False,False,False,False,False,False,False,False,False,32.7329010104334,35.0398330496645,282.0,1710.3,656.1,True,1,1,False,False,False,False,,True,False,False,,328,,16.4,110,,,,,Calm,False,False,,1.13.10,DJI Mini 4 Pro,1581F6Z9C239E003,6TVFL8Q0M2X1GK,6UZBL9J021036E,5LRXL9FDG1010E,345.9,1.7,16.4,18.285642,4.250186,0,24195,DJI Mini 4 Pro,1581F6Z9C239E003,6TVFL8Q0M2X1GK,6UZBL9J021036E,5LRXL9FDG1010E,DJI Fly,,1.13.10,D1DEE6F5-D33D-F456-DD0E-BCB9DE88D875,1581F6Z9C239E0037R3J,6TVFL8Q0M2X1GK,,6UZBL9J021036E,5LRXL9FDG1010E,,,,,Flight mode changed to Auto Takeoff.,
6/11/2026,1:51:05.18 PM,0m 1.7s,1.7,32.7335771061655,35.040278785897,0,0,0.3,1658,0.2,0,0,0,0,0,0,0,0,-0.6,-0.1,60.2,60.2,,Auto Takeoff,Auto Fly,,25,5,True,,Mini 4 Pro,True,False,,Smart,RC,True,True,False,,,True,,False,False,False,False,False,False,False,False,False,False,0,Follow Yaw,0,0,44,44,False,False,False,False,False,False,,True,Card Too Slow,100,100,1024,1024,1024,1024,,False,False,False,False,False,0,False,False,False,False,90,8.047,2938,3291,8.047,False,4.034,4.013,0.021,False,False,2.726,107.6,107.4,107.6,,,,,,,,,Idle,,,,,,9,Go Home,False,False,False,False,False,False,False,False,False,False,False,False,32.7329010104334,35.0398330496645,282.0,1710.3,656.1,True,1,1,False,False,False,False,,True,False,False,,328,,16.4,110,,,,,Calm,False,False,,1.13.10,DJI Mini 4 Pro,1581F6Z9C239E003,6TVFL8Q0M2X1GK,6UZBL9J021036E,5LRXL9FDG1010E,345.9,1.7,16.4,18.285642,4.250186,0,24195,DJI Mini 4 Pro,1581F6Z9C239E003,6TVFL8Q0M2X1GK,6UZBL9J021036E,5LRXL9FDG1010E,DJI Fly,,1.13.10,D1DEE6F5-D33D-F456-DD0E-BCB9DE88D875,1581F6Z9C239E0037R3J,6TVFL8Q0M2X1GK,,6UZBL9J021036E,5LRXL9FDG1010E,,,,,,
6/11/2026,1:51:05.28 PM,0m 1.8s,1.8,32.7335771418072,35.0402788776445,0,0,0.3,1658,0.2,0,0,0,0,0,0,0,0,-0.6,-0.1,60.2,60.2,,Auto Takeoff,Auto Fly,,25,5,True,,Mini 4 Pro,True,False,,Smart,RC,True,True,False,,,True,,False,False,False,False,False,False,False,False,False,False,0,Follow Yaw,0,0,44,44,False,False,False,False,False,False,,True,Card Too Slow,100,100,1024,1024,1024,1024,,False,False,False,False,False,0,False,False,False,False,90,8.047,2938,3291,8.047,False,4.034,4.013,0.021,False,False,2.726,107.6,107.4,107.6,,,,,,,,,Idle,,,,,,9,Go Home,False,False,False,False,False,False,False,False,False,False,False,False,32.7329010104334,35.0398330496645,282.0,1710.3,656.1,True,1,1,False,False,False,False,,True,False,False,,328,,16.4,110,,,,,Calm,False,False,,1.13.10,DJI Mini 4 Pro,1581F6Z9C239E003,6TVFL8Q0M2X1GK,6UZBL9J021036E,5LRXL9FDG1010E,345.9,1.7,16.4,18.285642,4.250186,0,24195,DJI Mini 4 Pro,1581F6Z9C239E003,6TVFL8Q0M2X1GK,6UZBL9J021036E,5LRXL9FDG1010E,DJI Fly,,1.13.10,D1DEE6F5-D33D-F456-DD0E-BCB9DE88D875,1581F6Z9C239E0037R3J,6TVFL8Q0M2X1GK,,6UZBL9J021036E,5LRXL9FDG1010E,,,,,,
6/11/2026,1:51:05.38 PM,0m 1.9s,1.9,32.7335771779287,35.0402788142931,0,0,0.3,1658,0.3,0,0,0,0,0,0,0,0,-0.6,-0.1,60.2,60.2,,Auto Takeoff,Auto Fly,,25,5,True,,Mini 4 Pro,True,False,,Smart,RC,True,True,False,,,True,,False,False,False,False,False,False,False,False,False,False,0,Follow Yaw,0,0,44,44,False,False,False,False,False,False,,True,Card Too Slow,100,100,1024,1024,1024,1024,,False,False,False,False,False,0,False,False,False,False,90,8.047,2938,3291,8.047,False,4.034,4.013,0.021,False,False,2.726,107.6,107.4,107.6,,,,,,,,,Idle,,,,,,9,Go Home,False,False,False,False,False,False,False,False,False,False,False,False,32.7329010104334,35.0398330496645,282.0,1710.3,656.1,True,1,1,False,False,False,False,,True,False,False,,328,,16.4,110,,,,,Calm,False,False,,1.13.10,DJI Mini 4 Pro,1581F6Z9C239E003,6TVFL8Q0M2X1GK,6UZBL9J021036E,5LRXL9FDG1010E,345.9,1.7,16.4,18.285642,4.250186,0,24195,DJI Mini 4 Pro,1581F6Z9C239E003,6TVFL8Q0M2X1GK,6UZBL9J021036E,5LRXL9FDG1010E,DJI Fly,,1.13.10,D1DEE6F5-D33D-F456-DD0E-BCB9DE88D875,1581F6Z9C239E0037R3J,6TVFL8Q0M2X1GK,,6UZBL9J021036E,5LRXL9FDG1010E,,,,,,
6/11/2026,1:51:05.48 PM,0m 2.0s,2.0,32.7335770997226,35.0402789729771,0,0,0.3,1658,0.3,0,0,0,0,0,0,0,0,-0.7,-0.1,60.2,60.2,,Auto Takeoff,Auto Fly,,25,5,True,,Mini 4 Pro,True,False,,Smart,RC,True,True,False,,,True,,False,False,False,False,False,False,False,False,False,False,0,Follow Yaw,0,0,44,44,False,False,False,False,False,False,,True,Card Too Slow,100,100,1024,1024,1024,1024,,False,False,False,False,False,0,False,False,False,False,90,8.047,2938,3291,8.047,False,4.034,4.013,0.021,False,False,2.726,107.6,107.4,107.6,,,,,,,,,Idle,,,,,,9,Go Home,False,False,False,False,False,False,False,False,False,False,False,False,32.7329010104334,35.0398330496645,282.0,1710.3,656.1,True,1,1,False,False,False,False,,True,False,False,,328,,16.4,110,,,,,Calm,False,False,,1.13.10,DJI Mini 4 Pro,1581F6Z9C239E003,6TVFL8Q0M2X1GK,6UZBL9J021036E,5LRXL9FDG1010E,345.9,1.7,16.4,18.285642,4.250186,0,24195,DJI Mini 4 Pro,1581F6Z9C239E003,6TVFL8Q0M2X1GK,6UZBL9J021036E,5LRXL9FDG1010E,DJI Fly,,1.13.10,D1DEE6F5-D33D-F456-DD0E-BCB9DE88D875,1581F6Z9C239E0037R3J,6TVFL8Q0M2X1GK,,6UZBL9J021036E,5LRXL9FDG1010E,,,,,,
6/11/2026,1:51:05.58 PM,0m 2.1s,2.1,32.7335771395453,35.0402789474736,0,0,0.3,1658,0.3,0,0,0,0,0,0,0,0,0,0.6,60.1,60.1,,Auto Takeoff,Auto Fly,,25,5,True,,Mini 4 Pro,True,False,,Smart,RC,True,True,False,,,True,,False,False,False,False,False,False,False,False,False,False,0,Follow Yaw,0,0,44,44,False,False,False,False,False,False,,True,Card Too Slow,100,100,1024,1024,1024,1024,,False,False,False,False,False,0,False,False,False,False,90,8.047,2938,3291,8.047,False,4.034,4.013,0.021,False,False,2.726,107.6,107.4,107.6,,,,,,,,,Idle,,,,,,9,Go Home,False,False,False,False,False,False,False,False,False,False,False,False,32.7329010104334,35.0398330496645,282.0,1710.3,656.1,True,1,1,False,False,False,False,,True,False,False,,328,,16.4,110,,,,,Calm,False,False,,1.13.10,DJI Mini 4 Pro,1581F6Z9C239E003,6TVFL8Q0M2X1GK,6UZBL9J021036E,5LRXL9FDG1010E,345.9,1.7,16.4,18.285642,4.250186,0,24195,DJI Mini 4 Pro,1581F6Z9C239E003,6TVFL8Q0M2X1GK,6UZBL9J021036E,5LRXL9FDG1010E,DJI Fly,,1.13.10,D1DEE6F5-D33D-F456-DD0E-BCB9DE88D875,1581F6Z9C239E0037R3J,6TVFL8Q0M2X1GK,,6UZBL9J021036E,5LRXL9FDG1010E,,,,,,
6/11/2026,1:51:05.68 PM,0m 2.2s,2.2,32.7335770284392,35.0402790237804,0,0,0.3,1658,0.4,0,0,0,0,0,0,0,0,2,2.2,59.5,59.5,,Auto Takeoff,Auto Fly,,25,5,True,,Mini 4 Pro,True,False,,Smart,RC,True,True,False,,,True,,False,False,False,False,False,False,False,False,False,False,0,Follow Yaw,0,0,44,44,False,False,False,False,False,False,,True,Card Too Slow,100,100,1024,1024,1024,1024,,False,False,False,False,False,0,False,False,False,False,90,8.047,2938,3291,8.047,False,4.034,4.013,0.021,False,False,2.726,107.6,107.4,107.6,,,,,,,,,Idle,,,,,,9,Go Home,False,False,False,False,False,False,False,False,False,False,False,False,32.7329010104334,35.0398330496645,282.0,1710.3,656.1,True,1,1,False,False,False,False,,True,False,False,,328,,16.4,110,,,,,Calm,False,False,,1.13.10,DJI Mini 4 Pro,1581F6Z9C239E003,6TVFL8Q0M2X1GK,6UZBL9J021036E,5LRXL9FDG1010E,345.9,1.7,16.4,18.285642,4.250186,0,24195,DJI Mini 4 Pro,1581F6Z9C239E003,6TVFL8Q0M2X1GK,6UZBL9J021036E,5LRXL9FDG1010E,DJI Fly,,1.13.10,D1DEE6F5-D33D-F456-DD0E-BCB9DE88D875,1581F6Z9C239E0037R3J,6TVFL8Q0M2X1GK,,6UZBL9J021036E,5LRXL9FDG1010E,,,,,,
6/11/2026,1:51:05.78 PM,0m 2.3s,2.3,32.7335770007483,35.0402790450876,0,0,0.3,1658,0.4,0,0,0,0,0,0,-0.447388,0,1.3,2,58.9,58.9,,Auto Takeoff,Auto Fly,,25,5,True,,Mini 4 Pro,True,False,,Smart,RC,False,True,False,,,True,,False,False,False,False,False,False,False,False,False,False,0,Follow Yaw,0,0,44,44,False,False,False,False,False,False,,True,Card Too Slow,100,100,1024,1024,1024,1024,,False,False,False,False,False,0,False,False,False,False,90,8.047,2938,3291,8.047,False,4.034,4.013,0.021,False,False,2.726,107.6,107.4,107.6,,,,,,,,,Idle,,,,,,9,Go Home,False,False,False,False,False,False,False,False,False,False,False,False,32.7329010104334,35.0398330496645,282.0,1710.3,656.1,True,1,1,False,False,False,False,,True,False,False,,328,,16.4,110,,,,,Calm,False,False,,1.13.10,DJI Mini 4 Pro,1581F6Z9C239E003,6TVFL8Q0M2X1GK,6UZBL9J021036E,5LRXL9FDG1010E,345.9,1.7,16.4,18.285642,4.250186,0,24195,DJI Mini 4 Pro,1581F6Z9C239E003,6TVFL8Q0M2X1GK,6UZBL9J021036E,5LRXL9FDG1010E,DJI Fly,,1.13.10,D1DEE6F5-D33D-F456-DD0E-BCB9DE88D875,1581F6Z9C239E0037R3J,6TVFL8Q0M2X1GK,,6UZBL9J021036E,5LRXL9FDG1010E,,,,,,
6/11/2026,1:51:05.88 PM,0m 2.4s,2.4,32.7335768380988,35.0402791657608,0,0,0.3,1658,0.5,0.223694,0.223694,-0.223694,0,0,0,-0.894776,0,-0.4,0.2,60.2,60.2,148.0,Auto Takeoff,Auto Fly,,25,5,True,,Mini 4 Pro,True,False,,Smart,RC,False,True,False,,,True,,False,False,False,False,False,False,False,False,False,False,0,Follow Yaw,0,0,44,44,False,False,False,False,False,False,,True,Card Too Slow,100,100,1024,1024,1024,1024,,False,False,False,False,False,0,False,False,False,False,90,8.047,2938,3291,8.047,False,4.034,4.013,0.021,False,False,2.726,107.6,107.4,107.6,,,,,,,,,Idle,,,,,,9,Go Home,False,False,False,False,False,False,False,False,False,False,False,False,32.7329010104334,35.0398330496645,282.0,1710.3,656.1,True,1,1,False,False,False,False,,True,False,False,,328,,16.4,110,,,,,Calm,False,False,,1.13.10,DJI Mini 4 Pro,1581F6Z9C239E003,6TVFL8Q0M2X1GK,6UZBL9J021036E,5LRXL9FDG1010E,345.9,1.7,16.4,18.285642,4.250186,0,24195,DJI Mini 4 Pro,1581F6Z9C239E003,6TVFL8Q0M2X1GK,6UZBL9J021036E,5LRXL9FDG1010E,DJI Fly,,1.13.10,D1DEE6F5-D33D-F456-DD0E-BCB9DE88D875,1581F6Z9C239E0037R3J,6TVFL8Q0M2X1GK,,6UZBL9J021036E,5LRXL9FDG1010E,,,,,,Possible gimbal attitude error. Go to Settings to calibrate gimbal (Code: 40027).; SD card speed low. Normal use may be affected. Replace SD card (Code: 1C000402).
6/11/2026,1:51:05.98 PM,0m 2.5s,2.5,32.7335767551633,35.0402792683451,0,0,0.6,1658,0.5,0.316351,0.316351,-0.223694,0,0.223694,0.223694,-1.11847,0,0,-2.3,60.3,60.3,133.8,Auto Takeoff,Auto Fly,,25,5,True,,Mini 4 Pro,True,False,,Smart,RC,False,True,False,,,True,,False,False,False,False,False,False,False,False,False,False,0,Follow Yaw,0,0,44,44,False,False,False,False,False,False,,True,Card Too Slow,100,100,1024,1024,1024,1024,,False,False,False,False,False,0,False,False,False,False,90,8.047,2938,3291,8.047,False,4.034,4.013,0.021,False,False,2.726,107.6,107.4,107.6,,,,,,,,,Idle,,,,,,9,Go Home,False,False,False,False,False,False,False,False,False,False,False,False,32.7329010104334,35.0398330496645,281.9,1710.3,656.1,True,1,1,False,False,False,False,,True,False,False,,328,,16.4,110,,,,,Calm,False,False,,1.13.10,DJI Mini 4 Pro,1581F6Z9C239E003,6TVFL8Q0M2X1GK,6UZBL9J021036E,5LRXL9FDG1010E,345.9,1.7,16.4,18.285642,4.250186,0,24195,DJI Mini 4 Pro,1581F6Z9C239E003,6TVFL8Q0M2X1GK,6UZBL9J021036E,5LRXL9FDG1010E,DJI Fly,,1.13.10,D1DEE6F5-D33D-F456-DD0E-BCB9DE88D875,1581F6Z9C239E0037R3J,6TVFL8Q0M2X1GK,,6UZBL9J021036E,5LRXL9FDG1010E,,,,,,
6/11/2026,1:51:06.08 PM,0m 2.6s,2.6,32.733576698685,35.040279394396,0.3,0.3,0.9,1658,0.5,0.223694,0.316351,0,0,0.223694,0.223694,-1.11847,0,1.9,-2.8,59.7,59.7,118.0,Auto Takeoff,Auto Fly,,25,5,True,,Mini 4 Pro,True,False,,Smart,RC,False,True,False,,,True,,False,False,False,False,False,False,False,False,False,False,0,Follow Yaw,0,0,44,44,False,False,False,False,False,False,,True,Card Too Slow,100,100,1024,1024,1024,1024,,False,False,False,False,False,0,False,False,False,False,90,8.047,2938,3291,8.047,False,4.034,4.013,0.021,False,False,2.726,107.6,107.4,107.6,,,,,,,,,Idle,,,,,,9,Go Home,False,False,False,False,False,False,False,False,False,False,False,False,32.7329010104334,35.0398330496645,281.9,1710.3,656.1,True,1,1,False,False,False,False,,True,False,False,,328,,16.4,110,,,,,Calm,False,False,,1.13.10,DJI Mini 4 Pro,1581F6Z9C239E003,6TVFL8Q0M2X1GK,6UZBL9J021036E,5LRXL9FDG1010E,345.9,1.7,16.4,18.285642,4.250186,0,24195,DJI Mini 4 Pro,1581F6Z9C239E003,6TVFL8Q0M2X1GK,6UZBL9J021036E,5LRXL9FDG1010E,DJI Fly,,1.13.10,D1DEE6F5-D33D-F456-DD0E-BCB9DE88D875,1581F6Z9C239E0037R3J,6TVFL8Q0M2X1GK,,6UZBL9J021036E,5LRXL9FDG1010E,,,,,,
6/11/2026,1:51:06.18 PM,0m 2.7s,2.7,32.7335766654422,35.0402794976322,0.3,0.3,0.9,1658,0.6,0.223694,0.316351,0,0,0.223694,0.223694,-0.894776,0,2.2,-1.8,60,60,110.9,Auto Takeoff,Auto Fly,,25,5,True,,Mini 4 Pro,True,False,,Smart,RC,False,True,False,,,True,,False,False,False,False,False,False,False,False,False,False,0,Follow Yaw,0,0,44,44,False,False,False,False,False,False,,True,Card Too Slow,100,100,1024,1024,1024,1024,,False,False,False,False,False,0,False,False,False,False,90,8.047,2938,3291,8.047,False,4.034,4.013,0.021,False,False,2.726,107.6,107.4,107.6,,,,,,,,,Idle,,,,,,9,Go Home,False,False,False,False,False,False,False,False,False,False,False,False,32.7329010104334,35.0398330496645,282.0,1710.3,656.1,True,1,1,False,False,False,False,,True,False,False,,328,,16.4,110,W,SW,0.22,0.22,Calm,False,False,,1.13.10,DJI Mini 4 Pro,1581F6Z9C239E003,6TVFL8Q0M2X1GK,6UZBL9J021036E,5LRXL9FDG1010E,345.9,1.7,16.4,18.285642,4.250186,0,24195,DJI Mini 4 Pro,1581F6Z9C239E003,6TVFL8Q0M2X1GK,6UZBL9J021036E,5LRXL9FDG1010E,DJI Fly,,1.13.10,D1DEE6F5-D33D-F456-DD0E-BCB9DE88D875,1581F6Z9C239E0037R3J,6TVFL8Q0M2X1GK,,6UZBL9J021036E,5LRXL9FDG1010E,,,,,,
6/11/2026,1:51:06.28 PM,0m 2.8s,2.8,32.7335764639295,35.0402798679627,0.6,0.6,0.9,1658,0.7,0.223694,0.316351,0,0,0.223694,0.223694,-0.671082,0,1.6,-1.8,60.2,60.2,122.8,Auto Takeoff,Auto Fly,,26,5,True,,Mini 4 Pro,True,False,,Smart,RC,False,True,False,,,True,,False,False,False,False,False,False,False,False,False,False,0,Follow Yaw,0,0,44,44,False,False,False,False,False,False,,True,Card Too Slow,100,100,1024,1024,1024,1024,,False,False,False,False,False,0,False,False,False,False,90,8.047,2938,3291,8.047,False,4.034,4.013,0.021,False,False,2.726,107.6,107.4,107.6,,,,,,,,,Idle,,,,,,9,Go Home,False,False,False,False,False,False,False,False,False,False,False,False,32.7329010104334,35.0398330496645,281.9,1710.3,656.1,True,1,1,False,False,False,False,,True,False,False,,328,,16.4,110,W,SW,0.22,0.22,Calm,False,False,,1.13.10,DJI Mini 4 Pro,1581F6Z9C239E003,6TVFL8Q0M2X1GK,6UZBL9J021036E,5LRXL9FDG1010E,345.9,1.7,16.4,18.285642,4.250186,0,24195,DJI Mini 4 Pro,1581F6Z9C239E003,6TVFL8Q0M2X1GK,6UZBL9J021036E,5LRXL9FDG1010E,DJI Fly,,1.13.10,D1DEE6F5-D33D-F456-DD0E-BCB9DE88D875,1581F6Z9C239E0037R3J,6TVFL8Q0M2X1GK,,6UZBL9J021036E,5LRXL9FDG1010E,,,,,,
6/11/2026,1:51:06.38 PM,0m 2.9s,2.9,32.7335763223223,35.0402800851092,0.6,0.6,0.9,1658,0.8,0.316351,0.316351,-0.223694,0,0.223694,0.223694,-0.671082,0,3,-2.8,60.1,60.1,127.7,Auto Takeoff,Auto Fly,,26,5,True,,Mini 4 Pro,True,False,,Smart,RC,False,True,False,,,True,,False,False,False,False,False,False,False,False,False,False,0,Follow Yaw,0,0,44,44,False,False,False,False,False,False,,True,Card Too Slow,100,100,1024,1024,1024,1024,,False,False,False,False,False,0,False,False,False,False,90,8.047,2938,3291,8.047,False,4.034,4.013,0.021,False,False,2.726,107.6,107.4,107.6,,,,,,,,,Idle,,,,,,9,Go Home,False,False,False,False,False,False,False,False,False,False,False,False,32.7329010104334,35.0398330496645,281.9,1710.3,656.1,True,1,1,False,False,False,False,,True,False,False,,328,,16.4,110,W,SW,0.22,0.22,Calm,False,False,,1.13.10,DJI Mini 4 Pro,1581F6Z9C239E003,6TVFL8Q0M2X1GK,6UZBL9J021036E,5LRXL9FDG1010E,345.9,1.7,16.4,18.285642,4.250186,0,24195,DJI Mini 4 Pro,1581F6Z9C239E003,6TVFL8Q0M2X1GK,6UZBL9J021036E,5LRXL9FDG1010E,DJI Fly,,1.13.10,D1DEE6F5-D33D-F456-DD0E-BCB9DE88D875,1581F6Z9C239E0037R3J,6TVFL8Q0M2X1GK,,6UZBL9J021036E,5LRXL9FDG1010E,,,,,,
6/11/2026,1:51:06.48 PM,0m 3.0s,3.0,32.7335765166381,35.0402803130926,0.9,0.9,0.9,1659,0.9,0.316351,0.316351,-0.223694,0,0.223694,0.223694,-0.894776,0,2,-4.1,59.7,59.7,44.6,Auto Takeoff,Auto Fly,,27,5,True,,Mini 4 Pro,True,False,,Smart,RC,False,True,False,,,True,,False,False,False,False,False,False,False,False,False,False,0,Follow Yaw,0,0,44,44,False,False,False,False,False,False,,True,Card Too Slow,100,100,1024,1024,1024,1024,,False,False,False,False,False,0,False,False,False,False,90,8.047,2938,3291,8.047,False,4.034,4.013,0.021,False,False,2.726,107.6,107.4,107.6,,,,,,,,,Idle,,,,,,9,Go Home,False,False,False,False,False,False,False,False,False,False,False,False,32.733577020694,35.0402790327433,0.4,1710.3,656.1,True,1,1,False,False,False,False,,True,False,False,,328,,16.4,110,W,SW,0.44,0.44,Calm,False,False,,1.13.10,DJI Mini 4 Pro,1581F6Z9C239E003,6TVFL8Q0M2X1GK,6UZBL9J021036E,5LRXL9FDG1010E,345.9,1.7,16.4,18.285642,4.250186,0,24195,DJI Mini 4 Pro,1581F6Z9C239E003,6TVFL8Q0M2X1GK,6UZBL9J021036E,5LRXL9FDG1010E,DJI Fly,,1.13.10,D1DEE6F5-D33D-F456-DD0E-BCB9DE88D875,1581F6Z9C239E0037R3J,6TVFL8Q0M2X1GK,,6UZBL9J021036E,5LRXL9FDG1010E,,,,,Home Point Updated.,
6/11/2026,1:51:06.54 PM,0m 3.1s,3.1,32.7335764311666,35.0402805097466,0.9,0.9,1.3,1659,1.0,0.223694,0.316351,0,0,0.223694,0.223694,-0.894776,0,1.7,-4.5,59.7,59.7,117.3,Auto Takeoff,Auto Fly,,27,5,True,,Mini 4 Pro,True,False,,Smart,RC,False,True,False,,,True,,False,False,False,False,False,False,False,False,False,False,0,Follow Yaw,0,0,44,44,False,False,False,False,False,False,,True,Card Too Slow,100,100,1024,1024,1024,1024,,False,False,False,False,False,0,False,False,False,False,90,8.047,2938,3291,8.047,False,4.034,4.013,0.021,False,False,2.726,107.6,107.4,107.6,,,,,,,,,Idle,,,,,,9,Go Home,False,False,False,False,False,False,False,False,False,False,False,False,32.733577020694,35.0402790327433,0.5,1710.3,656.1,True,1,1,False,False,False,False,,True,False,False,,328,,16.4,110,W,SW,0.44,0.44,Calm,False,False,,1.13.10,DJI Mini 4 Pro,1581F6Z9C239E003,6TVFL8Q0M2X1GK,6UZBL9J021036E,5LRXL9FDG1010E,345.9,1.7,16.4,18.285642,4.250186,0,24195,DJI Mini 4 Pro,1581F6Z9C239E003,6TVFL8Q0M2X1GK,6UZBL9J021036E,5LRXL9FDG1010E,DJI Fly,,1.13.10,D1DEE6F5-D33D-F456-DD0E-BCB9DE88D875,1581F6Z9C239E0037R3J,6TVFL8Q0M2X1GK,,6UZBL9J021036E,5LRXL9FDG1010E,,,,,,
6/11/2026,1:51:06.64 PM,0m 3.2s,3.2,32.7335765293869,35.0402805984793,0.9,0.9,1.3,1659,1.0,0.223694,0.316351,0,0,0.223694,0.223694,-0.894776,0,3.1,-4.7,59.8,59.8,37.2,Auto Takeoff,Auto Fly,,28,5,True,,Mini 4 Pro,True,False,,Smart,RC,False,True,False,,,True,,False,False,False,False,False,False,False,False,False,False,0,Follow Yaw,0,0,44,44,False,False,False,False,False,False,,True,Card Too Slow,100,100,1024,1024,1203,1024,N,False,False,False,False,False,0,False,False,False,False,90,7.986,2938,3291,7.986,False,4.009,3.977,0.032,False,False,2.726,107.6,107.4,107.6,,,,,,,,,Idle,,,,,,9,Go Home,False,False,False,False,False,False,False,False,False,False,False,False,32.733577020694,35.0402790327433,0.5,1710.3,656.1,True,1,1,False,False,False,False,,True,False,False,,328,,16.4,110,W,SW,0.67,0.67,Calm,False,False,,1.13.10,DJI Mini 4 Pro,1581F6Z9C239E003,6TVFL8Q0M2X1GK,6UZBL9J021036E,5LRXL9FDG1010E,345.9,1.7,16.4,18.285642,4.250186,0,24195,DJI Mini 4 Pro,1581F6Z9C239E003,6TVFL8Q0M2X1GK,6UZBL9J021036E,5LRXL9FDG1010E,DJI Fly,,1.13.10,D1DEE6F5-D33D-F456-DD0E-BCB9DE88D875,1581F6Z9C239E0037R3J,6TVFL8Q0M2X1GK,,6UZBL9J021036E,5LRXL9FDG1010E,,,,,,
6/11/2026,1:51:06.78 PM,0m 3.3s,3.3,32.733576541793,35.04028069756,1.3,1.3,1.6,1659,1.0,0,0.316351,0,0,0,0.223694,-1.11847,0,3.3,-2.9,59.9,59.9,,Auto Takeoff,Auto Fly,,28,5,True,,Mini 4 Pro,True,False,,Smart,RC,False,True,False,,,True,,False,False,False,False,False,False,False,False,False,False,0,Follow Yaw,0,0,44,44,False,False,False,False,False,False,,True,Card Too Slow,100,100,1024,1024,1304,1024,N,False,False,False,False,False,0,False,False,False,False,90,7.986,2938,3291,7.986,False,4.009,3.977,0.032,False,False,2.726,107.6,107.4,107.6,,,,,,,,,Idle,,,,,,9,Go Home,False,False,False,False,False,False,False,False,False,False,False,False,32.733577020694,35.0402790327433,0.5,1710.3,656.1,True,1,1,False,False,False,False,,True,False,False,,328,,16.4,110,W,SW,0.67,0.67,Calm,False,False,,1.13.10,DJI Mini 4 Pro,1581F6Z9C239E003,6TVFL8Q0M2X1GK,6UZBL9J021036E,5LRXL9FDG1010E,345.9,1.7,16.4,18.285642,4.250186,0,24195,DJI Mini 4 Pro,1581F6Z9C239E003,6TVFL8Q0M2X1GK,6UZBL9J021036E,5LRXL9FDG1010E,DJI Fly,,1.13.10,D1DEE6F5-D33D-F456-DD0E-BCB9DE88D875,1581F6Z9C239E0037R3J,6TVFL8Q0M2X1GK,,6UZBL9J021036E,5LRXL9FDG1010E,,,,,,
6/11/2026,1:51:06.85 PM,0m 3.4s,3.4,32.7335765433009,35.0402807379745,1.6,1.6,1.6,1659,1.1,0,0.316351,0,0,0,0.223694,-1.342164,0,1.6,-0.5,59.8,59.8,,Auto Takeoff,Auto Fly,,28,5,True,,Mini 4 Pro,True,False,,Smart,RC,False,True,False,,,True,,False,False,False,False,False,False,False,False,False,False,0,Follow Yaw,0,0,44,44,False,False,False,False,False,False,,True,Card Too Slow,100,100,1024,1024,1280,1024,N,False,False,False,False,False,0,False,False,False,False,90,7.986,2938,3291,7.986,False,4.009,3.977,0.032,False,False,2.726,107.6,107.4,107.6,,,,,,,,,Idle,,,,,,9,Go Home,False,False,False,False,False,False,False,False,False,False,False,False,32.733577020694,35.0402790327433,0.5,1710.3,656.1,True,1,1,False,False,False,False,,True,False,False,,328,,16.4,110,NW,W,0.89,0.89,Calm,False,False,,1.13.10,DJI Mini 4 Pro,1581F6Z9C239E003,6TVFL8Q0M2X1GK,6UZBL9J021036E,5LRXL9FDG1010E,345.9,1.7,16.4,18.285642,4.250186,0,24195,DJI Mini 4 Pro,1581F6Z9C239E003,6TVFL8Q0M2X1GK,6UZBL9J021036E,5LRXL9FDG1010E,DJI Fly,,1.13.10,D1DEE6F5-D33D-F456-DD0E-BCB9DE88D875,1581F6Z9C239E0037R3J,6TVFL8Q0M2X1GK,,6UZBL9J021036E,5LRXL9FDG1010E,,,,,,
6/11/2026,1:51:06.95 PM,0m 3.5s,3.5,32.7335764898383,35.0402807699964,1.6,1.6,1.9,1659,1.1,0,0.316351,0,0,0,0.223694,-1.789552,0,0.5,-1.6,59.9,59.9,,Auto Takeoff,Auto Fly,,28,5,True,,Mini 4 Pro,True,False,,Smart,RC,False,True,False,,,True,,False,False,False,False,False,False,False,False,False,False,0,Follow Yaw,0,0,44,44,False,False,False,False,False,False,,True,Card Too Slow,100,100,1024,1024,1024,1024,N,False,False,False,False,False,0,False,False,False,False,90,7.986,2937,3291,7.986,False,4.009,3.977,0.032,False,False,6.409,107.6,107.4,107.6,,,,,,,,,Idle,,,,,,9,Go Home,False,False,False,False,False,False,False,False,False,False,False,False,32.733577020694,35.0402790327433,0.5,1710.3,656.1,True,1,1,False,False,False,False,,True,False,False,,328,,16.4,110,NW,W,0.89,0.89,Calm,False,False,,1.13.10,DJI Mini 4 Pro,1581F6Z9C239E003,6TVFL8Q0M2X1GK,6UZBL9J021036E,5LRXL9FDG1010E,345.9,1.7,16.4,18.285642,4.250186,0,24195,DJI Mini 4 Pro,1581F6Z9C239E003,6TVFL8Q0M2X1GK,6UZBL9J021036E,5LRXL9FDG1010E,DJI Fly,,1.13.10,D1DEE6F5-D33D-F456-DD0E-BCB9DE88D875,1581F6Z9C239E0037R3J,6TVFL8Q0M2X1GK,,6UZBL9J021036E,5LRXL9FDG1010E,,,,,,
6/11/2026,1:51:07.05 PM,0m 3.6s,3.6,32.7335764263687,35.0402808148924,1.9,1.9,2.2,1660,1.1,0,0.316351,0,0,0,0.223694,-2.23694,0,1.4,-4.5,60.1,60.1,,Auto Takeoff,Auto Fly,,28,5,True,,Mini 4 Pro,True,False,,Smart,RC,False,True,False,,,True,,False,False,False,False,False,False,False,False,False,False,0,Follow Yaw,0,0,44,44,False,False,False,False,False,False,,True,Card Too Slow,100,100,1024,1024,1024,1024,N,False,False,False,False,False,0,False,False,False,False,90,7.986,2937,3291,7.986,False,4.009,3.977,0.032,False,False,6.409,107.6,107.4,107.6,,,,,,,,,Idle,,,,,,9,Go Home,False,False,False,False,False,False,False,False,False,False,False,False,32.733577020694,35.0402790327433,0.5,1710.3,656.1,True,1,1,False,False,False,False,,True,False,False,,328,,16.4,110,NW,W,1.11,1.11,Calm,False,False,,1.13.10,DJI Mini 4 Pro,1581F6Z9C239E003,6TVFL8Q0M2X1GK,6UZBL9J021036E,5LRXL9FDG1010E,345.9,1.7,16.4,18.285642,4.250186,0,24195,DJI Mini 4 Pro,1581F6Z9C239E003,6TVFL8Q0M2X1GK,6UZBL9J021036E,5LRXL9FDG1010E,DJI Fly,,1.13.10,D1DEE6F5-D33D-F456-DD0E-BCB9DE88D875,1581F6Z9C239E0037R3J,6TVFL8Q0M2X1GK,,6UZBL9J021036E,5LRXL9FDG1010E,,,,,,
6/11/2026,1:51:07.15 PM,0m 3.7s,3.7,32.7335763632418,35.0402808457329,2.2,2.2,2.6,1660,1.1,0,0.316351,0,0,0,0.223694,-2.23694,0,0.9,-5.8,60.1,60.1,,Auto Takeoff,Auto Fly,,28,5,True,,Mini 4 Pro,True,False,,Smart,RC,False,True,False,,,True,,False,False,False,False,False,False,False,False,False,False,0,Follow Yaw,0,0,44,44,False,False,False,False,False,False,,True,Card Too Slow,100,100,1024,1024,1024,1024,N,False,False,False,False,False,0,False,False,False,False,90,7.986,2937,3291,7.986,False,4.009,3.977,0.032,False,False,6.409,107.6,107.4,107.6,,,,,,,,,Idle,,,,,,9,Go Home,False,False,False,False,False,False,False,False,False,False,False,False,32.733577020694,35.0402790327433,0.6,1710.3,656.1,True,1,1,False,False,False,False,,True,False,False,,328,,16.4,110,NW,W,1.11,1.11,Calm,False,False,,1.13.10,DJI Mini 4 Pro,1581F6Z9C239E003,6TVFL8Q0M2X1GK,6UZBL9J021036E,5LRXL9FDG1010E,345.9,1.7,16.4,18.285642,4.250186,0,24195,DJI Mini 4 Pro,1581F6Z9C239E003,6TVFL8Q0M2X1GK,6UZBL9J021036E,5LRXL9FDG1010E,DJI Fly,,1.13.10,D1DEE6F5-D33D-F456-DD0E-BCB9DE88D875,1581F6Z9C239E0037R3J,6TVFL8Q0M2X1GK,,6UZBL9J021036E,5LRXL9FDG1010E,,,,,,
6/11/2026,1:51:07.25 PM,0m 3.8s,3.8,32.7335763395263,35.0402808287849,2.6,2.6,2.6,1660,1.1,0,0.316351,0,0,0,0.223694,-1.565858,0,0.6,-4.3,60,60,,Auto Takeoff,Auto Fly,,29,5,True,,Mini 4 Pro,True,False,,Smart,RC,False,True,False,,,True,,False,False,False,False,False,False,False,False,False,False,0,Follow Yaw,0,0,44,44,False,False,False,False,False,False,,True,Card Too Slow,100,100,1024,1024,1024,1024,N,False,False,False,False,False,0,False,False,False,False,90,7.986,2937,3291,7.986,False,4.009,3.977,0.032,False,False,6.409,107.6,107.4,107.6,,,,,,,,,Idle,,,,,,9,Go Home,False,False,False,False,False,False,False,False,False,False,False,False,32.733577020694,35.0402790327433,0.6,1710.3,656.1,True,1,1,False,False,False,False,,True,False,False,,328,,16.4,110,NW,W,1.34,1.34,Calm,False,False,,1.13.10,DJI Mini 4 Pro,1581F6Z9C239E003,6TVFL8Q0M2X1GK,6UZBL9J021036E,5LRXL9FDG1010E,345.9,1.7,16.4,18.285642,4.250186,0,24195,DJI Mini 4 Pro,1581F6Z9C239E003,6TVFL8Q0M2X1GK,6UZBL9J021036E,5LRXL9FDG1010E,DJI Fly,,1.13.10,D1DEE6F5-D33D-F456-DD0E-BCB9DE88D875,1581F6Z9C239E0037R3J,6TVFL8Q0M2X1GK,,6UZBL9J021036E,5LRXL9FDG1010E,,,,,,
6/11/2026,1:51:07.35 PM,0m 3.9s,3.9,32.733576331644,35.0402808005518,2.9,2.9,2.9,1661,1.2,0,0.316351,0,0,0,0.223694,-1.342164,0,0.8,-2.6,59.9,59.9,,Auto Takeoff,Auto Fly,,29,5,True,,Mini 4 Pro,True,False,,Smart,RC,False,True,False,,,True,,False,False,False,False,False,False,False,False,False,False,0,Follow Yaw,0,0,44,44,False,False,False,False,False,False,,True,Card Too Slow,100,100,1024,1024,1024,1024,N,False,False,False,False,False,0,False,False,False,False,90,7.986,2937,3291,7.986,False,4.009,3.977,0.032,False,False,6.409,107.6,107.4,107.6,,,,,,,,,Idle,,,,,,9,Go Home,False,False,False,False,False,False,False,False,False,False,False,False,32.733577020694,35.0402790327433,0.5,1710.3,656.1,True,1,1,False,False,False,False,,True,False,False,,328,,16.4,110,NW,W,1.34,1.34,Calm,False,True,,1.13.10,DJI Mini 4 Pro,1581F6Z9C239E003,6TVFL8Q0M2X1GK,6UZBL9J021036E,5LRXL9FDG1010E,345.9,1.7,16.4,18.285642,4.250186,0,24195,DJI Mini 4 Pro,1581F6Z9C239E003,6TVFL8Q0M2X1GK,6UZBL9J021036E,5LRXL9FDG1010E,DJI Fly,,1.13.10,D1DEE6F5-D33D-F456-DD0E-BCB9DE88D875,1581F6Z9C239E0037R3J,6TVFL8Q0M2X1GK,,6UZBL9J021036E,5LRXL9FDG1010E,,,,,,
6/11/2026,1:51:07.48 PM,0m 4.0s,4.0,32.7335762959338,35.0402808106961,3.2,3.2,2.9,1661,1.2,0,0.316351,0,0,0,0.223694,-1.11847,0,0.5,-2.2,60.2,60.2,,Auto Takeoff,Auto Fly,,29,5,True,,Mini 4 Pro,True,False,,Smart,RC,False,True,False,,,True,,False,False,False,False,False,False,False,False,False,False,0,Follow Yaw,0,0,44,44,False,False,False,False,False,False,,True,Card Too Slow,100,100,1024,1024,1024,1024,N,False,False,False,False,False,0,False,False,False,False,90,7.986,2937,3291,7.986,False,4.009,3.977,0.032,False,False,6.409,107.6,107.4,107.6,,,,,,,,,Idle,,,,,,9,Go Home,False,False,False,False,False,False,False,False,False,False,False,False,32.733577020694,35.0402790327433,0.6,1710.3,656.1,True,1,1,False,False,False,False,,True,False,False,,328,,16.4,110,NW,W,1.34,1.34,Calm,False,False,,1.13.10,DJI Mini 4 Pro,1581F6Z9C239E003,6TVFL8Q0M2X1GK,6UZBL9J021036E,5LRXL9FDG1010E,345.9,1.7,16.4,18.285642,4.250186,0,24195,DJI Mini 4 Pro,1581F6Z9C239E003,6TVFL8Q0M2X1GK,6UZBL9J021036E,5LRXL9FDG1010E,DJI Fly,,1.13.10,D1DEE6F5-D33D-F456-DD0E-BCB9DE88D875,1581F6Z9C239E0037R3J,6TVFL8Q0M2X1GK,,6UZBL9J021036E,5LRXL9FDG1010E,,,,,,
6/11/2026,1:51:07.56 PM,0m 4.1s,4.1,32.733576265981,35.0402807566336,3.2,3.2,3.2,1661,1.2,0,0.316351,0,0,0,0.223694,-1.11847,0,0.4,-2,60.3,60.3,,Auto Takeoff,Auto Fly,,29,5,True,,Mini 4 Pro,True,False,,Smart,RC,False,True,False,,,True,,False,False,False,False,False,False,False,False,False,False,0,Follow Yaw,0,0,44,44,False,False,False,False,False,False,,True,Card Too Slow,100,100,1024,1024,1101,1024,N,False,False,False,False,False,0,False,False,False,False,90,7.986,2937,3291,7.986,False,4.009,3.977,0.032,False,False,6.409,107.6,107.4,107.6,,,,,,,,,Idle,,,,,,9,Go Home,False,False,False,False,False,False,False,False,False,False,False,False,32.733577020694,35.0402790327433,0.5,1710.3,656.1,True,1,1,False,False,False,False,,True,False,False,,328,,16.4,110,NW,W,1.56,1.56,Calm,False,False,,1.13.10,DJI Mini 4 Pro,1581F6Z9C239E003,6TVFL8Q0M2X1GK,6UZBL9J021036E,5LRXL9FDG1010E,345.9,1.7,16.4,18.285642,4.250186,0,24195,DJI Mini 4 Pro,1581F6Z9C239E003,6TVFL8Q0M2X1GK,6UZBL9J021036E,5LRXL9FDG1010E,DJI Fly,,1.13.10,D1DEE6F5-D33D-F456-DD0E-BCB9DE88D875,1581F6Z9C239E0037R3J,6TVFL8Q0M2X1GK,,6UZBL9J021036E,5LRXL9FDG1010E,,,,,Home point updated (Code: 3000001).,
6/11/2026,1:51:07.66 PM,0m 4.2s,4.2,32.7335761983989,35.040280701797,3.6,3.6,3.2,1661,1.2,0,0.316351,0,0,0,0.223694,-1.11847,0,-0.3,-2.8,59.9,59.9,,Auto Takeoff,Auto Fly,,29,5,True,,Mini 4 Pro,True,False,,Smart,RC,False,True,False,,,True,,False,False,False,False,False,False,False,False,False,False,0,Follow Yaw,0,0,44,44,False,False,False,False,False,False,,True,Card Too Slow,100,100,1024,1024,1247,1024,N,False,False,False,False,False,0,False,False,False,False,90,7.984,2937,3291,7.984,False,4.008,3.976,0.032,False,False,6.409,107.6,107.4,107.6,,,,,,,,,Idle,,,,,,9,Go Home,False,False,False,False,False,False,False,False,False,False,False,False,32.733577020694,35.0402790327433,0.5,1710.3,656.1,True,1,1,False,False,False,False,,True,False,False,,328,,16.4,110,NW,W,1.56,1.56,Calm,False,False,,1.13.10,DJI Mini 4 Pro,1581F6Z9C239E003,6TVFL8Q0M2X1GK,6UZBL9J021036E,5LRXL9FDG1010E,345.9,1.7,16.4,18.285642,4.250186,0,24195,DJI Mini 4 Pro,1581F6Z9C239E003,6TVFL8Q0M2X1GK,6UZBL9J021036E,5LRXL9FDG1010E,DJI Fly,,1.13.10,D1DEE6F5-D33D-F456-DD0E-BCB9DE88D875,1581F6Z9C239E0037R3J,6TVFL8Q0M2X1GK,,6UZBL9J021036E,5LRXL9FDG1010E,,,,,,
6/11/2026,1:51:07.76 PM,0m 4.3s,4.3,32.733576116423,35.0402806551899,3.6,3.6,3.6,1661,1.2,0,0.316351,0,0,0,0.223694,-1.11847,0,-1.3,-2.8,59.8,59.8,,Auto Takeoff,Auto Fly,,29,5,True,,Mini 4 Pro,True,False,,Smart,RC,False,True,False,,,True,,False,False,False,False,False,False,False,False,False,False,0,Follow Yaw,0,0,44,44,False,False,False,False,False,False,,True,Card Too Slow,100,100,1024,1024,1203,1024,N,False,False,False,False,False,0,False,False,False,False,90,7.984,2937,3291,7.984,False,4.008,3.976,0.032,False,False,6.409,107.6,107.4,107.6,,,,,,,,,Idle,,,,,,9,Go Home,False,False,False,False,False,False,False,False,False,False,False,False,32.733577020694,35.0402790327433,0.5,1710.3,656.1,True,1,1,False,False,False,False,,True,False,False,,328,,16.4,110,NW,W,1.56,1.56,Calm,False,False,,1.13.10,DJI Mini 4 Pro,1581F6Z9C239E003,6TVFL8Q0M2X1GK,6UZBL9J021036E,5LRXL9FDG1010E,345.9,1.7,16.4,18.285642,4.250186,0,24195,DJI Mini 4 Pro,1581F6Z9C239E003,6TVFL8Q0M2X1GK,6UZBL9J021036E,5LRXL9FDG1010E,DJI Fly,,1.13.10,D1DEE6F5-D33D-F456-DD0E-BCB9DE88D875,1581F6Z9C239E0037R3J,6TVFL8Q0M2X1GK,,6UZBL9J021036E,5LRXL9FDG1010E,,,,,,
6/11/2026,1:51:07.86 PM,0m 4.4s,4.4,32.733575972691,35.0402806701824,3.9,3.9,3.6,1662,1.3,0,0.316351,0,0,0,0.223694,-1.342164,0,0.4,-3.9,60,60,,Auto Takeoff,Auto Fly,,29,5,True,,Mini 4 Pro,True,False,,Smart,RC,False,True,False,,,True,,False,False,False,False,False,False,False,False,False,False,0,Follow Yaw,0,0,44,44,False,False,False,False,False,False,,True,Card Too Slow,100,100,1024,1024,1024,1024,N,False,False,False,False,False,0,False,False,False,False,90,7.984,2937,3291,7.984,False,4.008,3.976,0.032,False,False,6.409,107.6,107.4,107.6,,,,,,,,,Idle,,,,,,9,Go Home,False,False,False,False,False,False,False,False,False,False,False,False,32.733577020694,35.0402790327433,0.6,1710.3,656.1,True,1,1,False,False,False,False,,True,False,False,,328,,16.4,110,NW,W,1.78,1.78,Calm,False,False,,1.13.10,DJI Mini 4 Pro,1581F6Z9C239E003,6TVFL8Q0M2X1GK,6UZBL9J021036E,5LRXL9FDG1010E,345.9,1.7,16.4,18.285642,4.250186,0,24195,DJI Mini 4 Pro,1581F6Z9C239E003,6TVFL8Q0M2X1GK,6UZBL9J021036E,5LRXL9FDG1010E,DJI Fly,,1.13.10,D1DEE6F5-D33D-F456-DD0E-BCB9DE88D875,1581F6Z9C239E0037R3J,6TVFL8Q0M2X1GK,,6UZBL9J021036E,5LRXL9FDG1010E,,,,,,
6/11/2026,1:51:07.96 PM,0m 4.5s,4.5,32.733575918543,35.0402806670861,3.9,3.9,3.9,1662,1.3,0,0.316351,0,0,0,0.223694,-1.342164,0,0.3,-4,60.1,60.1,,P-GPS,Auto Fly,,29,5,True,,Mini 4 Pro,True,False,,Smart,RC,False,True,False,,,True,,False,False,False,False,False,False,False,False,False,False,0,Follow Yaw,0,0,44,44,False,False,False,False,False,False,,True,Card Too Slow,100,100,1024,1024,1024,1024,N,False,False,False,False,False,0,False,False,False,False,90,7.984,2933,3291,7.984,False,4.008,3.976,0.032,False,False,6.425,107.8,107.4,107.7,,,,,,,,,Idle,,,,,,9,Go Home,False,False,False,False,False,False,False,False,False,False,False,False,32.733577020694,35.0402790327433,0.6,1710.3,656.1,True,1,1,False,False,False,False,,True,False,False,,328,,16.4,110,NW,W,1.78,1.78,Calm,False,False,,1.13.10,DJI Mini 4 Pro,1581F6Z9C239E003,6TVFL8Q0M2X1GK,6UZBL9J021036E,5LRXL9FDG1010E,345.9,1.7,16.4,18.285642,4.250186,0,24195,DJI Mini 4 Pro,1581F6Z9C239E003,6TVFL8Q0M2X1GK,6UZBL9J021036E,5LRXL9FDG1010E,DJI Fly,,1.13.10,D1DEE6F5-D33D-F456-DD0E-BCB9DE88D875,1581F6Z9C239E0037R3J,6TVFL8Q0M2X1GK,,6UZBL9J021036E,5LRXL9FDG1010E,,,,,Flight mode changed to P-GPS.,
6/11/2026,1:51:08.06 PM,0m 4.6s,4.6,32.7335759034639,35.0402805704906,4.2,4.2,3.9,1662,1.4,0,0.316351,0,0,0,0.223694,-0.894776,0,-0.5,-5.5,60.2,60.2,,P-GPS,Auto Fly,,28,5,True,,Mini 4 Pro,True,False,,Smart,RC,False,True,False,,,True,,False,False,False,False,False,False,False,False,False,False,0,Follow Yaw,0,0,44,44,False,False,False,False,False,False,,True,Card Too Slow,100,100,1024,1024,1024,1024,N,False,False,False,False,False,0,False,False,False,False,90,7.984,2933,3291,7.984,False,4.008,3.976,0.032,False,False,6.425,107.8,107.4,107.7,,,,,,,,,Idle,,,,,,9,Go Home,False,False,False,False,False,False,False,False,False,False,False,False,32.733577020694,35.0402790327433,0.6,1710.3,656.1,True,1,1,False,False,False,False,,True,False,False,,328,,16.4,110,NW,W,1.78,1.78,Calm,False,True,,1.13.10,DJI Mini 4 Pro,1581F6Z9C239E003,6TVFL8Q0M2X1GK,6UZBL9J021036E,5LRXL9FDG1010E,345.9,1.7,16.4,18.285642,4.250186,0,24195,DJI Mini 4 Pro,1581F6Z9C239E003,6TVFL8Q0M2X1GK,6UZBL9J021036E,5LRXL9FDG1010E,DJI Fly,,1.13.10,D1DEE6F5-D33D-F456-DD0E-BCB9DE88D875,1581F6Z9C239E0037R3J,6TVFL8Q0M2X1GK,,6UZBL9J021036E,5LRXL9FDG1010E,,,,,,
6/11/2026,1:51:08.17 PM,0m 4.7s,4.7,32.7335758509609,35.0402805145947,4.2,4.2,3.9,1662,1.4,0,0.316351,0,0,0,0.223694,-0.223694,0,-1,-5.4,60.4,60.4,,P-GPS,Auto Fly,,28,5,True,,Mini 4 Pro,True,False,,Smart,RC,False,True,False,,,True,,False,False,False,False,False,False,False,False,False,False,0,Follow Yaw,0,0,44,44,False,False,False,False,False,False,,True,Card Too Slow,100,100,1024,1024,1024,1024,N,False,False,False,False,False,0,False,False,False,False,90,7.984,2933,3291,7.984,False,4.008,3.976,0.032,False,False,6.425,107.8,107.4,107.7,,,,,,,,,Idle,,,,,,9,Go Home,False,False,False,False,False,False,False,False,False,False,False,False,32.733577020694,35.0402790327433,0.6,1710.3,656.1,True,1,1,False,False,False,False,,True,False,False,,328,,16.4,110,NW,W,2.01,2.01,Calm,False,False,,1.13.10,DJI Mini 4 Pro,1581F6Z9C239E003,6TVFL8Q0M2X1GK,6UZBL9J021036E,5LRXL9FDG1010E,345.9,1.7,16.4,18.285642,4.250186,0,24195,DJI Mini 4 Pro,1581F6Z9C239E003,6TVFL8Q0M2X1GK,6UZBL9J021036E,5LRXL9FDG1010E,DJI Fly,,1.13.10,D1DEE6F5-D33D-F456-DD0E-BCB9DE88D875,1581F6Z9C239E0037R3J,6TVFL8Q0M2X1GK,,6UZBL9J021036E,5LRXL9FDG1010E,,,,,,
6/11/2026,1:51:08.27 PM,0m 4.8s,4.8,32.7335758507553,35.0402804640358,4.2,4.2,3.9,1662,1.4,0,0.316351,0,0,0,0.223694,0,0,-0.6,-4,60.4,60.4,,P-GPS,Auto Fly,,28,5,True,,Mini 4 Pro,True,False,,Smart,RC,False,True,False,,,True,,False,False,False,False,False,False,False,False,False,False,0,Follow Yaw,0,0,44,44,False,False,False,False,False,False,,True,Card Too Slow,100,100,1024,1024,1024,1024,N,False,False,False,False,False,0,False,False,False,False,90,7.984,2933,3291,7.984,False,4.008,3.976,0.032,False,False,6.425,107.8,107.4,107.7,,,,,,,,,Idle,,,,,,9,Go Home,False,False,False,False,False,False,False,False,False,False,False,False,32.733577020694,35.0402790327433,0.6,1710.3,656.1,True,1,1,False,False,False,False,,True,False,False,,328,,16.4,110,NW,W,2.01,2.01,Calm,False,True,,1.13.10,DJI Mini 4 Pro,1581F6Z9C239E003,6TVFL8Q0M2X1GK,6UZBL9J021036E,5LRXL9FDG1010E,345.9,1.7,16.4,18.285642,4.250186,0,24195,DJI Mini 4 Pro,1581F6Z9C239E003,6TVFL8Q0M2X1GK,6UZBL9J021036E,5LRXL9FDG1010E,DJI Fly,,1.13.10,D1DEE6F5-D33D-F456-DD0E-BCB9DE88D875,1581F6Z9C239E0037R3J,6TVFL8Q0M2X1GK,,6UZBL9J021036E,5LRXL9FDG1010E,,,,,,
