sep=,
CUSTOM.date [local],CUSTOM.updateTime [local],OSD.flyTime,OSD.flyTime [s],OSD.latitude,OSD.longitude,OSD.height [ft],OSD.heightMax [ft],OSD.vpsHeight [ft],OSD.altitude [ft],OSD.mileage [ft],OSD.hSpeed [MPH],OSD.hSpeedMax [MPH],OSD.xSpeed [MPH],OSD.xSpeedMax [MPH],OSD.ySpeed [MPH],OSD.ySpeedMax [MPH],OSD.zSpeed [MPH],OSD.zSpeedMax [MPH],OSD.pitch,OSD.roll,OSD.yaw,OSD.yaw [360],OSD.directionOfTravel,OSD.flycState,OSD.flycCommand,OSD.flightAction,OSD.gpsNum,OSD.gpsLevel,OSD.isGPSUsed,OSD.nonGPSCause,OSD.droneType,OSD.isSwaveWork,OSD.waveError,OSD.goHomeStatus,OSD.batteryType,OSD.ctrlDevice,OSD.isOnGround,OSD.isMotorOn,OSD.isMotorBlocked,OSD.motorStartFailedCause,OSD.motorFailReason,OSD.isImuPreheated,OSD.imuInitFailReason,OSD.isAcceletorOverRange,OSD.isBarometerDeadInAir,OSD.isCompassError,OSD.isGoHomeHeightModified,OSD.canIOCWork,OSD.isNotEnoughForce,OSD.isOutOfLimit,OSD.isPropellerCatapult,OSD.isVibrating,OSD.isVisionUsed,OSD.voltageWarning,GIMBAL.mode,GIMBAL.pitch,GIMBAL.roll,GIMBAL.yaw,GIMBAL.yaw [360],GIMBAL.isPitchAtLimit,GIMBAL.isRollAtLimit,GIMBAL.isYawAtLimit,GIMBAL.isStuck,CAMERA.isPhoto,CAMERA.isVideo,CAMERA.filename,CAMERA.sdCardIsInserted,CAMERA.sdCardState,RC.downlinkSignal,RC.uplinkSignal,RC.aileron,RC.elevator,RC.throttle,RC.rudder,RC.mode,RC.goHomeDepressed,RC.recordDepressed,RC.shutterDepressed,RC.playbackDepressed,RC.wheelDepressed,RC.wheelOffset,RC.custom1Depressed,RC.custom2Depressed,RC.custom3Depressed,RC.custom4Depressed,BATTERY.chargeLevel,BATTERY.currentPV [V],BATTERY.currentCapacity [mAh],BATTERY.fullCapacity [mAh],BATTERY.voltage [V],BATTERY.isCellVoltageEstimated,BATTERY.cellVoltage1 [V],BATTERY.cellVoltage2 [V],BATTERY.maxCellVoltageDeviation,BATTERY.isCellVoltageDeviationHigh,BATTERY.isVoltageLow,BATTERY.current [A],BATTERY.temperature [F],BATTERY.minTemperature [F],BATTERY.maxTemperature [F],BATTERY.usefulTime [s],BATTERY.goHomeTime [s],BATTERY.landTime [s],BATTERY.goHomeBattery,BATTERY.landBattery,BATTERY.safeFlyRadius,BATTERY.volumeConsume,BATTERY.status,BATTERY.goHomeStatus,BATTERY.goHomeCountdown,BATTERY.lowWarning,BATTERY.lowWarningGoHome,BATTERY.seriousLowWarning,BATTERY.seriousLowWarningLanding,BATTERY.timesCharged,MC.failSafeAction,MC.isObstacleAvoidanceEnabled,MC.isCollisionAvoidanceEnabled,MC.isRthObstacleAvoidanceEnabled,MC.isBraking,MC.isAvoidingObstacle,MC.isAvoidingActiveObstacle,MC.isAscentLimitedByObstacle,MC.isLandingConfirmationNeeded,MC.atLowAltitudeLimit,MC.atDistanceLimit,MC.atAirportAltitudeLimit,MC.atAirportBoundary,HOME.latitude,HOME.longitude,HOME.distance [ft],HOME.height [ft],HOME.heightLimit [ft],HOME.isHomeRecord,HOME.goHomeMode,HOME.aircraftHeadDirection,HOME.isDynamicHomePointEnabled,HOME.isReachedLimitDistance,HOME.isReachedLimitHeight,HOME.isCompassCalibrating,HOME.compassCalibrationState,HOME.isMultipleFlightModeEnabled,HOME.isBeginnerMode,HOME.isIOCEnabled,HOME.iocMode,HOME.goHomeHeight [ft],HOME.courseLockAngle,HOME.forceLandingHeight [ft],HOME.dataRecorderFileIndex,WEATHER.windDirection,WEATHER.windRelativeDirection,WEATHER.windSpeed [MPH],WEATHER.maxWindSpeed [MPH],WEATHER.windStrength,WEATHER.isFacingWind,WEATHER.isFlyingIntoWind,RECOVER.appType,RECOVER.appVersion,RECOVER.aircraftName,RECOVER.aircraftSerial,RECOVER.cameraSerial,RECOVER.rcSerial,RECOVER.batterySerial,DETAILS.totalTime [s],DETAILS.totalDistance [ft],DETAILS.maxHeight [ft],DETAILS.maxHorizontalSpeed [MPH],DETAILS.maxVerticalSpeed [MPH],DETAILS.photoNum,DETAILS.videoTime [s],DETAILS.aircraftName,DETAILS.aircraftSerial,DETAILS.cameraSerial,DETAILS.rcSerial,DETAILS.batterySerial,DETAILS.appName,DETAILS.appType,DETAILS.appVersion,DETAILS.guid,SERIAL.flightController,SERIAL.camera,SERIAL.gimbal,SERIAL.rc,SERIAL.battery,SERIAL.battery2,APPGPS.latitude,APPGPS.longitude,APPGPS.accuracy,APP.tip,APP.warning
6/11/2026,1:58:10.75 PM,0m 0.0s,0.0,32.7335770561986,35.040275935208,0,0,0.3,1658,0,0,0,0,0,0,0,0,0,-1.9,-2.5,-119.4,240.6,,P-GPS,Auto Fly,,28,5,True,,Mini 4 Pro,False,False,,Smart,RC,True,True,False,,,True,,False,False,False,False,False,False,False,False,False,False,0,Follow Yaw,0,0,-136,224,False,False,False,False,False,False,,False,Normal,,,1024,1024,1024,1024,,False,False,False,False,False,0,False,False,False,False,72,7.801,2357,3291,7.801,True,3.901,3.901,,False,False,1.144,117.3,117.3,117.3,,,,,,,,,Idle,,,,,,9,Hover,False,False,False,False,False,False,False,False,False,False,False,False,,,,,,False,,,False,False,False,False,,False,False,False,,,,,,,,,,Calm,False,False,,1.13.10,DJI Mini 4 Pro,1581F6Z9C239E003,6TVFL8Q0M2X1GK,6UZBL9J021036E,5LRXL9FDG1010E,119.4,0.8,22.9,15.345408,4.921268,0,7551,DJI Mini 4 Pro,1581F6Z9C239E003,6TVFL8Q0M2X1GK,6UZBL9J021036E,5LRXL9FDG1010E,DJI Fly,,1.13.10,4725AB83-5210-5CA6-AA66-2BC4FE98263F,1581F6Z9C239E0037R3J,6TVFL8Q0M2X1GK,,6UZBL9J021036E,5LRXL9FDG1010E,,,,,Flight mode changed to P-GPS.,
6/11/2026,1:58:10.84 PM,0m 0.1s,0.1,32.7335770644236,35.0402759297896,0,0,0.3,1658,0,0,0,0,0,0,0,0,0,-1.9,-2.5,-119.4,240.6,,Starting Motors,Auto Fly,,28,5,True,,Mini 4 Pro,False,False,,Smart,RC,True,True,False,,,True,,False,False,False,False,False,False,False,False,False,False,0,Follow Yaw,0,0,-136,224,False,False,False,False,False,False,,True,Card Too Slow,,,1024,1024,1024,1024,,False,False,False,False,False,0,False,False,False,False,72,7.801,2357,3291,7.801,True,3.901,3.901,,False,False,1.144,117.3,117.3,117.3,,,,,,,,,Idle,,,,,,9,Go Home,False,False,False,False,False,False,False,False,False,False,False,False,,,,,,False,,,False,False,False,False,,False,False,False,,,,,,,,,,Calm,False,False,,1.13.10,DJI Mini 4 Pro,1581F6Z9C239E003,6TVFL8Q0M2X1GK,6UZBL9J021036E,5LRXL9FDG1010E,119.4,0.8,22.9,15.345408,4.921268,0,7551,DJI Mini 4 Pro,1581F6Z9C239E003,6TVFL8Q0M2X1GK,6UZBL9J021036E,5LRXL9FDG1010E,DJI Fly,,1.13.10,4725AB83-5210-5CA6-AA66-2BC4FE98263F,1581F6Z9C239E0037R3J,6TVFL8Q0M2X1GK,,6UZBL9J021036E,5LRXL9FDG1010E,,,,,Aircraft not in flight. Vision systems and obstacle avoidance disabled (Code: 180059).; Flight mode changed to Starting Motors.,Possible gimbal attitude error. Go to Settings to calibrate gimbal (Code: 40027).; SD card speed low. Normal use may be affected. Replace SD card (Code: 1C000402).
6/11/2026,1:58:10.95 PM,0m 0.2s,0.2,32.733577048659,35.0402760535997,0,0,0.3,1658,0,0,0,0,0,0,0,0,0,-1.8,-2.4,-119.5,240.5,,Starting Motors,Auto Fly,,28,5,True,,Mini 4 Pro,False,False,,Smart,RC,True,True,False,,,True,,False,False,False,False,False,False,False,False,False,False,0,Follow Yaw,0,0,-136,224,False,False,False,False,False,False,,True,Card Too Slow,,,1024,1024,1024,1024,,False,False,False,False,False,0,False,False,False,False,72,7.801,2357,3291,7.801,True,3.901,3.901,,False,False,1.144,117.3,117.3,117.3,,,,,,,,,Idle,,,,,,9,Go Home,False,False,False,False,False,False,False,False,False,False,False,False,,,,,,False,,,False,False,False,False,,False,False,False,,,,,,,,,,Calm,False,False,,1.13.10,DJI Mini 4 Pro,1581F6Z9C239E003,6TVFL8Q0M2X1GK,6UZBL9J021036E,5LRXL9FDG1010E,119.4,0.8,22.9,15.345408,4.921268,0,7551,DJI Mini 4 Pro,1581F6Z9C239E003,6TVFL8Q0M2X1GK,6UZBL9J021036E,5LRXL9FDG1010E,DJI Fly,,1.13.10,4725AB83-5210-5CA6-AA66-2BC4FE98263F,1581F6Z9C239E0037R3J,6TVFL8Q0M2X1GK,,6UZBL9J021036E,5LRXL9FDG1010E,,,,,,
6/11/2026,1:58:11.05 PM,0m 0.3s,0.3,32.7335770665484,35.0402760594256,0,0,0.3,1658,0,0,0,0,0,0,0,0,0,-1.9,-2.5,-119.3,240.7,,Starting Motors,Auto Fly,,28,5,True,,Mini 4 Pro,True,False,,Smart,RC,True,True,False,,,True,,False,False,False,False,False,False,False,False,False,False,0,Follow Yaw,0,0,-136,224,False,False,False,False,False,False,,True,Card Too Slow,,,1024,1024,1024,1024,,False,False,False,False,False,0,False,False,False,False,72,7.801,2357,3291,7.801,True,3.901,3.901,,False,False,1.144,117.3,117.3,117.3,,,,,,,,,Idle,,,,,,9,Go Home,False,False,False,False,False,False,False,False,False,False,False,False,,,,,,False,,,False,False,False,False,,False,False,False,,,,,,,,,,Calm,False,False,,1.13.10,DJI Mini 4 Pro,1581F6Z9C239E003,6TVFL8Q0M2X1GK,6UZBL9J021036E,5LRXL9FDG1010E,119.4,0.8,22.9,15.345408,4.921268,0,7551,DJI Mini 4 Pro,1581F6Z9C239E003,6TVFL8Q0M2X1GK,6UZBL9J021036E,5LRXL9FDG1010E,DJI Fly,,1.13.10,4725AB83-5210-5CA6-AA66-2BC4FE98263F,1581F6Z9C239E0037R3J,6TVFL8Q0M2X1GK,,6UZBL9J021036E,5LRXL9FDG1010E,,,,,,
6/11/2026,1:58:11.14 PM,0m 0.4s,0.4,32.7335770845063,35.0402760766181,0,0,0.3,1658,0,0,0,0,0,0,0,0,0,-1.9,-2.5,-119.3,240.7,,Starting Motors,Auto Fly,,28,5,True,,Mini 4 Pro,True,False,,Smart,RC,True,True,False,,,True,,False,False,False,False,False,False,False,False,False,False,0,Follow Yaw,0,0,-136,224,False,False,False,False,False,False,,True,Card Too Slow,,,1024,1024,1024,1024,,False,False,False,False,False,0,False,False,False,False,72,7.801,2357,3291,7.801,True,3.901,3.901,,False,False,1.144,117.3,117.3,117.3,,,,,,,,,Idle,,,,,,9,Go Home,False,False,False,False,False,False,False,False,False,False,False,False,,,,,,False,,,False,False,False,False,,False,False,False,,,,,,,,,,Calm,False,False,,1.13.10,DJI Mini 4 Pro,1581F6Z9C239E003,6TVFL8Q0M2X1GK,6UZBL9J021036E,5LRXL9FDG1010E,119.4,0.8,22.9,15.345408,4.921268,0,7551,DJI Mini 4 Pro,1581F6Z9C239E003,6TVFL8Q0M2X1GK,6UZBL9J021036E,5LRXL9FDG1010E,DJI Fly,,1.13.10,4725AB83-5210-5CA6-AA66-2BC4FE98263F,1581F6Z9C239E0037R3J,6TVFL8Q0M2X1GK,,6UZBL9J021036E,5LRXL9FDG1010E,,,,,,
6/11/2026,1:58:11.25 PM,0m 0.5s,0.5,32.733577104452,35.0402760833402,0,0,0.3,1658,0,0,0,0,0,0,0,0,0,-2,-2.5,-119.4,240.6,,Starting Motors,Auto Fly,,28,5,True,,Mini 4 Pro,True,False,,Smart,RC,True,True,False,,,True,,False,False,False,False,False,False,False,False,False,False,0,Follow Yaw,0,0,-136,224,False,False,False,False,False,False,,True,Card Too Slow,100,,1024,1024,1024,1024,,False,False,False,False,False,0,False,False,False,False,72,7.801,2357,3291,7.801,False,3.904,3.897,0.007,False,False,1.144,117.3,117.3,117.3,,,,,,,,,Idle,,,,,,9,Go Home,False,False,False,False,False,False,False,False,False,False,False,False,,,,,,False,,,False,False,False,False,,False,False,False,,,,,,,,,,Calm,False,False,,1.13.10,DJI Mini 4 Pro,1581F6Z9C239E003,6TVFL8Q0M2X1GK,6UZBL9J021036E,5LRXL9FDG1010E,119.4,0.8,22.9,15.345408,4.921268,0,7551,DJI Mini 4 Pro,1581F6Z9C239E003,6TVFL8Q0M2X1GK,6UZBL9J021036E,5LRXL9FDG1010E,DJI Fly,,1.13.10,4725AB83-5210-5CA6-AA66-2BC4FE98263F,1581F6Z9C239E0037R3J,6TVFL8Q0M2X1GK,,6UZBL9J021036E,5LRXL9FDG1010E,,,,,,
6/11/2026,1:58:11.36 PM,0m 0.6s,0.6,32.7335771311147,35.0402760831773,0,0,0.3,1658,0,0,0,0,0,0,0,0,0,-1.9,-2.5,-119.4,240.6,,Starting Motors,Auto Fly,,28,5,True,,Mini 4 Pro,True,False,,Smart,RC,True,True,False,,,True,,False,False,False,False,False,False,False,False,False,False,0,Follow Yaw,0,0,-136,224,False,False,False,False,False,False,,True,Card Too Slow,100,100,1024,1024,1024,1024,,False,False,False,False,False,0,False,False,False,False,72,7.801,2357,3291,7.801,False,3.904,3.897,0.007,False,False,1.144,117.3,117.3,117.3,,,,,,,,,Idle,,,,,,9,Go Home,False,False,False,False,False,False,False,False,False,False,False,False,,,,,,False,,,False,False,False,False,,False,False,False,,,,,,,,,,Calm,False,False,,1.13.10,DJI Mini 4 Pro,1581F6Z9C239E003,6TVFL8Q0M2X1GK,6UZBL9J021036E,5LRXL9FDG1010E,119.4,0.8,22.9,15.345408,4.921268,0,7551,DJI Mini 4 Pro,1581F6Z9C239E003,6TVFL8Q0M2X1GK,6UZBL9J021036E,5LRXL9FDG1010E,DJI Fly,,1.13.10,4725AB83-5210-5CA6-AA66-2BC4FE98263F,1581F6Z9C239E0037R3J,6TVFL8Q0M2X1GK,,6UZBL9J021036E,5LRXL9FDG1010E,,,,,,
6/11/2026,1:58:11.46 PM,0m 0.7s,0.7,32.7335771413274,35.0402760869254,0,0,0.3,1658,0,0,0,0,0,0,0,0,0,-2,-2.5,-119.3,240.7,,Starting Motors,Auto Fly,,28,5,True,,Mini 4 Pro,True,False,,Smart,RC,True,True,False,,,True,,False,False,False,False,False,False,False,False,False,False,0,Follow Yaw,0,0,-136,224,False,False,False,False,False,False,,True,Card Too Slow,100,100,1024,1024,1024,1024,,False,False,False,False,False,0,False,False,False,False,72,7.801,2357,3291,7.801,False,3.904,3.897,0.007,False,False,1.144,117.3,117.3,117.3,,,,,,,,,Idle,,,,,,9,Go Home,False,False,False,False,False,False,False,False,False,False,False,False,,,,,,False,,,False,False,False,False,,False,False,False,,,,,,,,,,Calm,False,False,,1.13.10,DJI Mini 4 Pro,1581F6Z9C239E003,6TVFL8Q0M2X1GK,6UZBL9J021036E,5LRXL9FDG1010E,119.4,0.8,22.9,15.345408,4.921268,0,7551,DJI Mini 4 Pro,1581F6Z9C239E003,6TVFL8Q0M2X1GK,6UZBL9J021036E,5LRXL9FDG1010E,DJI Fly,,1.13.10,4725AB83-5210-5CA6-AA66-2BC4FE98263F,1581F6Z9C239E0037R3J,6TVFL8Q0M2X1GK,,6UZBL9J021036E,5LRXL9FDG1010E,,,,,,
6/11/2026,1:58:11.56 PM,0m 0.8s,0.8,32.7335771131568,35.0402760851736,0,0,0.3,1658,0,0,0,0,0,0,0,0,0,-2,-2.5,-119.3,240.7,,Starting Motors,Auto Fly,,28,5,True,,Mini 4 Pro,True,False,,Smart,RC,True,True,False,,,True,,False,False,False,False,False,False,False,False,False,False,0,Follow Yaw,0,0,-136,224,False,False,False,False,False,False,,True,Card Too Slow,100,100,1024,1024,1024,1024,,False,False,False,False,False,0,False,False,False,False,72,7.801,2357,3291,7.801,False,3.904,3.897,0.007,False,False,1.144,117.3,117.3,117.3,,,,,,,,,Idle,,,,,,9,Go Home,False,False,False,False,False,False,False,False,False,False,False,False,32.733577020694,35.0402790327433,0.9,1709.0,656.1,True,1,1,False,False,False,False,,True,False,False,,328,,16.4,110,,,,,Calm,False,False,,1.13.10,DJI Mini 4 Pro,1581F6Z9C239E003,6TVFL8Q0M2X1GK,6UZBL9J021036E,5LRXL9FDG1010E,119.4,0.8,22.9,15.345408,4.921268,0,7551,DJI Mini 4 Pro,1581F6Z9C239E003,6TVFL8Q0M2X1GK,6UZBL9J021036E,5LRXL9FDG1010E,DJI Fly,,1.13.10,4725AB83-5210-5CA6-AA66-2BC4FE98263F,1581F6Z9C239E0037R3J,6TVFL8Q0M2X1GK,,6UZBL9J021036E,5LRXL9FDG1010E,,,,,Data Recorder File Index is 110.; Set Return to Home (RTH) altitude to 100 m (328 ft).; Set maximum flight altitude to 200 m (656 ft).,
6/11/2026,1:58:11.66 PM,0m 0.9s,0.9,32.7335771242605,35.0402760925476,0,0,0.3,1658,0,0,0,0,0,0,0,0,0,-1.9,-2.5,-119.4,240.6,,Starting Motors,Auto Fly,,28,5,True,,Mini 4 Pro,True,False,,Smart,RC,True,True,False,,,True,,False,False,False,False,False,False,False,False,False,False,0,Follow Yaw,0,0,-136,224,False,False,False,False,False,False,,True,Card Too Slow,100,100,1024,1024,1024,1024,,False,False,False,False,False,0,False,False,False,False,72,7.801,2357,3291,7.801,False,3.904,3.897,0.007,False,False,1.144,117.3,117.3,117.3,,,,,,,,,Idle,,,,,,9,Go Home,False,False,False,False,False,False,False,False,False,False,False,False,32.733577020694,35.0402790327433,0.9,1709.0,656.1,True,1,1,False,False,False,False,,True,False,False,,328,,16.4,110,,,,,Calm,False,False,,1.13.10,DJI Mini 4 Pro,1581F6Z9C239E003,6TVFL8Q0M2X1GK,6UZBL9J021036E,5LRXL9FDG1010E,119.4,0.8,22.9,15.345408,4.921268,0,7551,DJI Mini 4 Pro,1581F6Z9C239E003,6TVFL8Q0M2X1GK,6UZBL9J021036E,5LRXL9FDG1010E,DJI Fly,,1.13.10,4725AB83-5210-5CA6-AA66-2BC4FE98263F,1581F6Z9C239E0037R3J,6TVFL8Q0M2X1GK,,6UZBL9J021036E,5LRXL9FDG1010E,,,,,,
6/11/2026,1:58:11.76 PM,0m 1.0s,1.0,32.7335771401622,35.0402760808143,0,0,0.3,1658,0,0,0,0,0,0,0,0,0,-1.9,-2.5,-119.4,240.6,,Starting Motors,Auto Fly,,28,5,True,,Mini 4 Pro,True,False,,Smart,RC,True,True,False,,,True,,False,False,False,False,False,False,False,False,False,False,0,Follow Yaw,0,0,-136,224,False,False,False,False,False,False,,True,Card Too Slow,100,100,1024,1024,1024,1024,,False,False,False,False,False,0,False,False,False,False,72,7.801,2357,3291,7.801,False,3.904,3.897,0.007,False,False,1.144,117.3,117.3,117.3,,,,,,,,,Idle,,,,,,9,Go Home,False,False,False,False,False,False,False,False,False,False,False,False,32.733577020694,35.0402790327433,0.9,1709.0,656.1,True,1,1,False,False,False,False,,True,False,False,,328,,16.4,110,,,,,Calm,False,False,,1.13.10,DJI Mini 4 Pro,1581F6Z9C239E003,6TVFL8Q0M2X1GK,6UZBL9J021036E,5LRXL9FDG1010E,119.4,0.8,22.9,15.345408,4.921268,0,7551,DJI Mini 4 Pro,1581F6Z9C239E003,6TVFL8Q0M2X1GK,6UZBL9J021036E,5LRXL9FDG1010E,DJI Fly,,1.13.10,4725AB83-5210-5CA6-AA66-2BC4FE98263F,1581F6Z9C239E0037R3J,6TVFL8Q0M2X1GK,,6UZBL9J021036E,5LRXL9FDG1010E,,,,,,
6/11/2026,1:58:11.84 PM,0m 1.1s,1.1,32.7335771612731,35.0402760837069,0,0,0.3,1658,0.1,0,0,0,0,0,0,0,0,-1.9,-2.5,-119.3,240.7,,Starting Motors,Auto Fly,,28,5,True,,Mini 4 Pro,True,False,,Smart,RC,True,True,False,,,True,,False,False,False,False,False,False,False,False,False,False,0,Follow Yaw,0,0,-136,224,False,False,False,False,False,False,,True,Card Too Slow,100,100,1024,1024,1024,1024,,False,False,False,False,False,0,False,False,False,False,72,7.801,2357,3291,7.801,False,3.904,3.897,0.007,False,False,1.144,117.3,117.3,117.3,,,,,,,,,Idle,,,,,,9,Go Home,False,False,False,False,False,False,False,False,False,False,False,False,32.733577020694,35.0402790327433,0.9,1709.0,656.1,True,1,1,False,False,False,False,,True,False,False,,328,,16.4,110,,,,,Calm,False,False,,1.13.10,DJI Mini 4 Pro,1581F6Z9C239E003,6TVFL8Q0M2X1GK,6UZBL9J021036E,5LRXL9FDG1010E,119.4,0.8,22.9,15.345408,4.921268,0,7551,DJI Mini 4 Pro,1581F6Z9C239E003,6TVFL8Q0M2X1GK,6UZBL9J021036E,5LRXL9FDG1010E,DJI Fly,,1.13.10,4725AB83-5210-5CA6-AA66-2BC4FE98263F,1581F6Z9C239E0037R3J,6TVFL8Q0M2X1GK,,6UZBL9J021036E,5LRXL9FDG1010E,,,,,,
6/11/2026,1:58:11.94 PM,0m 1.2s,1.2,32.7335771419443,35.0402760802847,0,0,0.3,1658,0.1,0,0,0,0,0,0,0,0,-1.9,-2.5,-119.3,240.7,,Starting Motors,Auto Fly,,27,5,True,,Mini 4 Pro,True,False,,Smart,RC,True,True,False,,,True,,False,False,False,False,False,False,False,False,False,False,0,Follow Yaw,0,0,-136,224,False,False,False,False,False,False,,True,Card Too Slow,100,100,1024,1024,1024,1024,,False,False,False,False,False,0,False,False,False,False,72,7.801,2357,3291,7.801,False,3.904,3.897,0.007,False,False,1.144,117.3,117.3,117.3,,,,,,,,,Idle,,,,,,9,Go Home,False,False,False,False,False,False,False,False,False,False,False,False,32.733577020694,35.0402790327433,0.9,1709.0,656.1,True,1,1,False,False,False,False,,True,False,False,,328,,16.4,110,,,,,Calm,False,False,,1.13.10,DJI Mini 4 Pro,1581F6Z9C239E003,6TVFL8Q0M2X1GK,6UZBL9J021036E,5LRXL9FDG1010E,119.4,0.8,22.9,15.345408,4.921268,0,7551,DJI Mini 4 Pro,1581F6Z9C239E003,6TVFL8Q0M2X1GK,6UZBL9J021036E,5LRXL9FDG1010E,DJI Fly,,1.13.10,4725AB83-5210-5CA6-AA66-2BC4FE98263F,1581F6Z9C239E0037R3J,6TVFL8Q0M2X1GK,,6UZBL9J021036E,5LRXL9FDG1010E,,,,,,
6/11/2026,1:58:12.04 PM,0m 1.3s,1.3,32.7335771594224,35.0402760914068,0,0,0.3,1658,0.1,0,0,0,0,0,0,0,0,-1.9,-2.5,-119.3,240.7,,Starting Motors,Auto Fly,,27,5,True,,Mini 4 Pro,True,False,,Smart,RC,True,True,False,,,True,,False,False,False,False,False,False,False,False,False,False,0,Follow Yaw,0,0,-136,224,False,False,False,False,False,False,,True,Card Too Slow,100,100,1024,1024,1024,1024,,False,False,False,False,False,0,False,False,False,False,72,7.801,2357,3291,7.801,False,3.904,3.897,0.007,False,False,1.144,117.3,117.3,117.3,,,,,,,,,Idle,,,,,,9,Go Home,False,False,False,False,False,False,False,False,False,False,False,False,32.733577020694,35.0402790327433,0.9,1709.0,656.1,True,1,1,False,False,False,False,,True,False,False,,328,,16.4,110,,,,,Calm,False,False,,1.13.10,DJI Mini 4 Pro,1581F6Z9C239E003,6TVFL8Q0M2X1GK,6UZBL9J021036E,5LRXL9FDG1010E,119.4,0.8,22.9,15.345408,4.921268,0,7551,DJI Mini 4 Pro,1581F6Z9C239E003,6TVFL8Q0M2X1GK,6UZBL9J021036E,5LRXL9FDG1010E,DJI Fly,,1.13.10,4725AB83-5210-5CA6-AA66-2BC4FE98263F,1581F6Z9C239E0037R3J,6TVFL8Q0M2X1GK,,6UZBL9J021036E,5LRXL9FDG1010E,,,,,,
6/11/2026,1:58:12.14 PM,0m 1.4s,1.4,32.7335771656597,35.0402760592626,0,0,0.3,1658,0.1,0,0,0,0,0,0,0,0,-2,-2.5,-119.3,240.7,,Starting Motors,Auto Fly,,27,5,True,,Mini 4 Pro,True,False,,Smart,RC,True,True,False,,,True,,False,False,False,False,False,False,False,False,False,False,0,Follow Yaw,0,0,-136,224,False,False,False,False,False,False,,True,Card Too Slow,100,100,1024,1024,1024,1024,,False,False,False,False,False,0,False,False,False,False,72,7.801,2357,3291,7.801,False,3.904,3.897,0.007,False,False,1.144,117.3,117.3,117.3,,,,,,,,,Idle,,,,,,9,Go Home,False,False,False,False,False,False,False,False,False,False,False,False,32.733577020694,35.0402790327433,0.9,1709.0,656.1,True,1,1,False,False,False,False,,True,False,False,,328,,16.4,110,,,,,Calm,False,False,,1.13.10,DJI Mini 4 Pro,1581F6Z9C239E003,6TVFL8Q0M2X1GK,6UZBL9J021036E,5LRXL9FDG1010E,119.4,0.8,22.9,15.345408,4.921268,0,7551,DJI Mini 4 Pro,1581F6Z9C239E003,6TVFL8Q0M2X1GK,6UZBL9J021036E,5LRXL9FDG1010E,DJI Fly,,1.13.10,4725AB83-5210-5CA6-AA66-2BC4FE98263F,1581F6Z9C239E0037R3J,6TVFL8Q0M2X1GK,,6UZBL9J021036E,5LRXL9FDG1010E,,,,,,
6/11/2026,1:58:12.24 PM,0m 1.5s,1.5,32.7335771814929,35.0402760502998,0,0,0.3,1658,0.1,0,0,0,0,0,0,0,0,-2,-2.5,-119.3,240.7,,Starting Motors,Auto Fly,,27,5,True,,Mini 4 Pro,True,False,,Smart,RC,True,True,False,,,True,,False,False,False,False,False,False,False,False,False,False,0,Follow Yaw,0,0,-136,224,False,False,False,False,False,False,,True,Card Too Slow,100,100,1024,1024,1024,1024,,False,False,False,False,False,0,False,False,False,False,72,7.801,2356,3291,7.801,False,3.904,3.897,0.007,False,False,2.485,117.3,117.3,117.3,,,,,,,,,Idle,,,,,,9,Go Home,False,False,False,False,False,False,False,False,False,False,False,False,32.733577020694,35.0402790327433,0.9,1709.0,656.1,True,1,1,False,False,False,False,,True,False,False,,328,,16.4,110,,,,,Calm,False,False,,1.13.10,DJI Mini 4 Pro,1581F6Z9C239E003,6TVFL8Q0M2X1GK,6UZBL9J021036E,5LRXL9FDG1010E,119.4,0.8,22.9,15.345408,4.921268,0,7551,DJI Mini 4 Pro,1581F6Z9C239E003,6TVFL8Q0M2X1GK,6UZBL9J021036E,5LRXL9FDG1010E,DJI Fly,,1.13.10,4725AB83-5210-5CA6-AA66-2BC4FE98263F,1581F6Z9C239E0037R3J,6TVFL8Q0M2X1GK,,6UZBL9J021036E,5LRXL9FDG1010E,,,,,,
6/11/2026,1:58:12.34 PM,0m 1.6s,1.6,32.733577147222,35.0402761158918,0,0,0.3,1658,0.1,0,0,0,0,0,0,0,0,-2,-2.5,-119.3,240.7,,Auto Takeoff,Auto Fly,,27,5,True,,Mini 4 Pro,True,False,,Smart,RC,True,True,False,,,True,,False,False,False,False,False,False,False,False,False,False,0,Follow Yaw,0,0,-136,224,False,False,False,False,False,False,,True,Card Too Slow,100,100,1024,1024,1024,1024,,False,False,False,False,False,0,False,False,False,False,72,7.801,2356,3291,7.801,False,3.904,3.897,0.007,False,False,2.485,117.3,117.3,117.3,,,,,,,,,Idle,,,,,,9,Go Home,False,False,False,False,False,False,False,False,False,False,False,False,32.733577020694,35.0402790327433,0.8,1709.0,656.1,True,1,1,False,False,False,False,,True,False,False,,328,,16.4,110,,,,,Calm,False,False,,1.13.10,DJI Mini 4 Pro,1581F6Z9C239E003,6TVFL8Q0M2X1GK,6UZBL9J021036E,5LRXL9FDG1010E,119.4,0.8,22.9,15.345408,4.921268,0,7551,DJI Mini 4 Pro,1581F6Z9C239E003,6TVFL8Q0M2X1GK,6UZBL9J021036E,5LRXL9FDG1010E,DJI Fly,,1.13.10,4725AB83-5210-5CA6-AA66-2BC4FE98263F,1581F6Z9C239E0037R3J,6TVFL8Q0M2X1GK,,6UZBL9J021036E,5LRXL9FDG1010E,,,,,Flight mode changed to Auto Takeoff.,
6/11/2026,1:58:12.44 PM,0m 1.7s,1.7,32.7335771804647,35.0402761388287,0,0,0.3,1658,0.1,0,0,0,0,0,0,0,0,-1.9,-2.5,-119.3,240.7,,Auto Takeoff,Auto Fly,,27,5,True,,Mini 4 Pro,True,False,,Smart,RC,True,True,False,,,True,,False,False,False,False,False,False,False,False,False,False,0,Follow Yaw,0,0,-136,224,False,False,False,False,False,False,,True,Card Too Slow,100,100,1024,1024,1024,1024,,False,False,False,False,False,0,False,False,False,False,72,7.801,2356,3291,7.801,False,3.904,3.897,0.007,False,False,2.485,117.3,117.3,117.3,,,,,,,,,Idle,,,,,,9,Go Home,False,False,False,False,False,False,False,False,False,False,False,False,32.733577020694,35.0402790327433,0.8,1709.0,656.1,True,1,1,False,False,False,False,,True,False,False,,328,,16.4,110,,,,,Calm,False,False,,1.13.10,DJI Mini 4 Pro,1581F6Z9C239E003,6TVFL8Q0M2X1GK,6UZBL9J021036E,5LRXL9FDG1010E,119.4,0.8,22.9,15.345408,4.921268,0,7551,DJI Mini 4 Pro,1581F6Z9C239E003,6TVFL8Q0M2X1GK,6UZBL9J021036E,5LRXL9FDG1010E,DJI Fly,,1.13.10,4725AB83-5210-5CA6-AA66-2BC4FE98263F,1581F6Z9C239E0037R3J,6TVFL8Q0M2X1GK,,6UZBL9J021036E,5LRXL9FDG1010E,,,,,,
6/11/2026,1:58:12.54 PM,0m 1.8s,1.8,32.7335771314574,35.040276076944,0,0,0.3,1658,0.1,0,0,0,0,0,0,0,0,-1.9,-2.5,-119.3,240.7,,Auto Takeoff,Auto Fly,,26,5,True,,Mini 4 Pro,True,False,,Smart,RC,True,True,False,,,True,,False,False,False,False,False,False,False,False,False,False,0,Follow Yaw,0,0,-136,224,False,False,False,False,False,False,,True,Card Too Slow,100,100,1024,1024,1024,1024,,False,False,False,False,False,0,False,False,False,False,72,7.801,2356,3291,7.801,False,3.904,3.897,0.007,False,False,2.485,117.3,117.3,117.3,,,,,,,,,Idle,,,,,,9,Go Home,False,False,False,False,False,False,False,False,False,False,False,False,32.733577020694,35.0402790327433,0.9,1709.0,656.1,True,1,1,False,False,False,False,,True,False,False,,328,,16.4,110,,,,,Calm,False,False,,1.13.10,DJI Mini 4 Pro,1581F6Z9C239E003,6TVFL8Q0M2X1GK,6UZBL9J021036E,5LRXL9FDG1010E,119.4,0.8,22.9,15.345408,4.921268,0,7551,DJI Mini 4 Pro,1581F6Z9C239E003,6TVFL8Q0M2X1GK,6UZBL9J021036E,5LRXL9FDG1010E,DJI Fly,,1.13.10,4725AB83-5210-5CA6-AA66-2BC4FE98263F,1581F6Z9C239E0037R3J,6TVFL8Q0M2X1GK,,6UZBL9J021036E,5LRXL9FDG1010E,,,,,,
6/11/2026,1:58:12.64 PM,0m 1.9s,1.9,32.7335771424926,35.0402760737255,0,0,0.3,1658,0.2,0,0,0,0,0,0,0,0,-2,-2.5,-119.3,240.7,,Auto Takeoff,Auto Fly,,26,5,True,,Mini 4 Pro,True,False,,Smart,RC,True,True,False,,,True,,False,False,False,False,False,False,False,False,False,False,0,Follow Yaw,0,0,-136,224,False,False,False,False,False,False,,True,Card Too Slow,100,100,1024,1024,1024,1024,,False,False,False,False,False,0,False,False,False,False,72,7.801,2356,3291,7.801,False,3.904,3.897,0.007,False,False,2.485,117.3,117.3,117.3,,,,,,,,,Idle,,,,,,9,Go Home,False,False,False,False,False,False,False,False,False,False,False,False,32.733577020694,35.0402790327433,0.9,1709.0,656.1,True,1,1,False,False,False,False,,True,False,False,,328,,16.4,110,,,,,Calm,False,False,,1.13.10,DJI Mini 4 Pro,1581F6Z9C239E003,6TVFL8Q0M2X1GK,6UZBL9J021036E,5LRXL9FDG1010E,119.4,0.8,22.9,15.345408,4.921268,0,7551,DJI Mini 4 Pro,1581F6Z9C239E003,6TVFL8Q0M2X1GK,6UZBL9J021036E,5LRXL9FDG1010E,DJI Fly,,1.13.10,4725AB83-5210-5CA6-AA66-2BC4FE98263F,1581F6Z9C239E0037R3J,6TVFL8Q0M2X1GK,,6UZBL9J021036E,5LRXL9FDG1010E,,,,,,
6/11/2026,1:58:12.74 PM,0m 2.0s,2.0,32.7335771357755,35.0402760798366,0,0,0.3,1658,0.2,0,0,0,0,0,0,0,0,-1.5,-2.2,-119.4,240.6,,Auto Takeoff,Auto Fly,,27,5,True,,Mini 4 Pro,True,False,,Smart,RC,True,True,False,,,True,,False,False,False,False,False,False,False,False,False,False,0,Follow Yaw,0,0,-136,224,False,False,False,False,False,False,,True,Card Too Slow,100,100,1024,1024,1024,1024,,False,False,False,False,False,0,False,False,False,False,72,7.782,2356,3291,7.782,False,3.895,3.887,0.008,False,False,2.485,117.3,117.3,117.3,,,,,,,,,Idle,,,,,,9,Go Home,False,False,False,False,False,False,False,False,False,False,False,False,32.733577020694,35.0402790327433,0.9,1709.0,656.1,True,1,1,False,False,False,False,,True,False,False,,328,,16.4,110,,,,,Calm,False,False,,1.13.10,DJI Mini 4 Pro,1581F6Z9C239E003,6TVFL8Q0M2X1GK,6UZBL9J021036E,5LRXL9FDG1010E,119.4,0.8,22.9,15.345408,4.921268,0,7551,DJI Mini 4 Pro,1581F6Z9C239E003,6TVFL8Q0M2X1GK,6UZBL9J021036E,5LRXL9FDG1010E,DJI Fly,,1.13.10,4725AB83-5210-5CA6-AA66-2BC4FE98263F,1581F6Z9C239E0037R3J,6TVFL8Q0M2X1GK,,6UZBL9J021036E,5LRXL9FDG1010E,,,,,,
6/11/2026,1:58:12.84 PM,0m 2.1s,2.1,32.7335771612045,35.0402760843995,0,0,0.3,1658,0.2,0,0,0,0,0,0,0,0,0,-0.8,-119.5,240.5,,Auto Takeoff,Auto Fly,,27,5,True,,Mini 4 Pro,True,False,,Smart,RC,True,True,False,,,True,,False,False,False,False,False,False,False,False,False,False,0,Follow Yaw,0,0,-136,224,False,False,False,False,False,False,,True,Card Too Slow,100,100,1024,1024,1024,1024,,False,False,False,False,False,0,False,False,False,False,72,7.782,2356,3291,7.782,False,3.895,3.887,0.008,False,False,2.485,117.3,117.3,117.3,,,,,,,,,Idle,,,,,,9,Go Home,False,False,False,False,False,False,False,False,False,False,False,False,32.733577020694,35.0402790327433,0.9,1709.0,656.1,True,1,1,False,False,False,False,,True,False,False,,328,,16.4,110,,,,,Calm,False,False,,1.13.10,DJI Mini 4 Pro,1581F6Z9C239E003,6TVFL8Q0M2X1GK,6UZBL9J021036E,5LRXL9FDG1010E,119.4,0.8,22.9,15.345408,4.921268,0,7551,DJI Mini 4 Pro,1581F6Z9C239E003,6TVFL8Q0M2X1GK,6UZBL9J021036E,5LRXL9FDG1010E,DJI Fly,,1.13.10,4725AB83-5210-5CA6-AA66-2BC4FE98263F,1581F6Z9C239E0037R3J,6TVFL8Q0M2X1GK,,6UZBL9J021036E,5LRXL9FDG1010E,,,,,,
6/11/2026,1:58:12.94 PM,0m 2.2s,2.2,32.7335771376947,35.0402760922624,0,0,0.3,1658,0.2,0,0,0,0,0,0,0,0,0.4,1.2,-120.1,239.9,,Auto Takeoff,Auto Fly,,27,5,True,,Mini 4 Pro,True,False,,Smart,RC,True,True,False,,,True,,False,False,False,False,False,False,False,False,False,False,0,Follow Yaw,0,0,-136,224,False,False,False,False,False,False,,True,Card Too Slow,100,100,1024,1024,1024,1024,,False,False,False,False,False,0,False,False,False,False,72,7.782,2356,3291,7.782,False,3.895,3.887,0.008,False,False,2.485,117.3,117.3,117.3,,,,,,,,,Idle,,,,,,9,Go Home,False,False,False,False,False,False,False,False,False,False,False,False,32.733577020694,35.0402790327433,0.9,1709.0,656.1,True,1,1,False,False,False,False,,True,False,False,,328,,16.4,110,,,,,Calm,False,False,,1.13.10,DJI Mini 4 Pro,1581F6Z9C239E003,6TVFL8Q0M2X1GK,6UZBL9J021036E,5LRXL9FDG1010E,119.4,0.8,22.9,15.345408,4.921268,0,7551,DJI Mini 4 Pro,1581F6Z9C239E003,6TVFL8Q0M2X1GK,6UZBL9J021036E,5LRXL9FDG1010E,DJI Fly,,1.13.10,4725AB83-5210-5CA6-AA66-2BC4FE98263F,1581F6Z9C239E0037R3J,6TVFL8Q0M2X1GK,,6UZBL9J021036E,5LRXL9FDG1010E,,,,,,
6/11/2026,1:58:13.04 PM,0m 2.3s,2.3,32.7335771558583,35.0402761185807,0,0,0.3,1658,0.2,0,0,0,0,0,0,-0.223694,0,-0.2,1.7,-121.3,238.7,,Auto Takeoff,Auto Fly,,27,5,True,,Mini 4 Pro,True,False,,Smart,RC,False,True,False,,,True,,False,False,False,False,False,False,False,False,False,False,0,Follow Yaw,0,0,-136,224,False,False,False,False,False,False,,True,Card Too Slow,100,100,1024,1024,1024,1024,,False,False,False,False,False,0,False,False,False,False,72,7.782,2356,3291,7.782,False,3.895,3.887,0.008,False,False,2.485,117.3,117.3,117.3,,,,,,,,,Idle,,,,,,9,Go Home,False,False,False,False,False,False,False,False,False,False,False,False,32.733577020694,35.0402790327433,0.8,1709.0,656.1,True,1,1,False,False,False,False,,True,False,False,,328,,16.4,110,W,NE,0.44,0.44,Calm,True,False,,1.13.10,DJI Mini 4 Pro,1581F6Z9C239E003,6TVFL8Q0M2X1GK,6UZBL9J021036E,5LRXL9FDG1010E,119.4,0.8,22.9,15.345408,4.921268,0,7551,DJI Mini 4 Pro,1581F6Z9C239E003,6TVFL8Q0M2X1GK,6UZBL9J021036E,5LRXL9FDG1010E,DJI Fly,,1.13.10,4725AB83-5210-5CA6-AA66-2BC4FE98263F,1581F6Z9C239E0037R3J,6TVFL8Q0M2X1GK,,6UZBL9J021036E,5LRXL9FDG1010E,,,,,,
6/11/2026,1:58:13.14 PM,0m 2.4s,2.4,32.7335771701149,35.0402760096408,0,0,0.3,1658,0.2,0,0,0,0,0,0,-0.671082,0,1,0.6,-119.7,240.3,,Auto Takeoff,Auto Fly,,27,5,True,,Mini 4 Pro,True,False,,Smart,RC,False,True,False,,,True,,False,False,False,False,False,False,False,False,False,False,0,Follow Yaw,0,0,-136,224,False,False,False,False,False,False,,True,Card Too Slow,100,100,1024,1024,1024,1024,,False,False,False,False,False,0,False,False,False,False,72,7.782,2356,3291,7.782,False,3.895,3.887,0.008,False,False,2.485,117.3,117.3,117.3,,,,,,,,,Idle,,,,,,9,Go Home,False,False,False,False,False,False,False,False,False,False,False,False,32.733577020694,35.0402790327433,0.9,1709.0,656.1,True,1,1,False,False,False,False,,True,False,False,,328,,16.4,110,W,NE,0.44,0.44,Calm,True,True,,1.13.10,DJI Mini 4 Pro,1581F6Z9C239E003,6TVFL8Q0M2X1GK,6UZBL9J021036E,5LRXL9FDG1010E,119.4,0.8,22.9,15.345408,4.921268,0,7551,DJI Mini 4 Pro,1581F6Z9C239E003,6TVFL8Q0M2X1GK,6UZBL9J021036E,5LRXL9FDG1010E,DJI Fly,,1.13.10,4725AB83-5210-5CA6-AA66-2BC4FE98263F,1581F6Z9C239E0037R3J,6TVFL8Q0M2X1GK,,6UZBL9J021036E,5LRXL9FDG1010E,,,,,,Possible gimbal attitude error. Go to Settings to calibrate gimbal (Code: 40027).; SD card speed low. Normal use may be affected. Replace SD card (Code: 1C000402).
6/11/2026,1:58:13.24 PM,0m 2.5s,2.5,32.7335772012329,35.0402759772522,0,0,0.6,1658,0.2,0,0,0,0,0,0,-0.894776,0,1.3,-0.7,-119.4,240.6,,Auto Takeoff,Auto Fly,,27,5,True,,Mini 4 Pro,True,False,,Smart,RC,False,True,False,,,True,,False,False,False,False,False,False,False,False,False,False,0,Follow Yaw,0,0,-136,224,False,False,False,False,False,False,,True,Card Too Slow,100,100,1024,1024,1024,1024,,False,False,False,False,False,0,False,False,False,False,72,7.782,2355,3291,7.782,False,3.895,3.887,0.008,False,False,3.314,117.3,117.3,117.3,,,,,,,,,Idle,,,,,,9,Go Home,False,False,False,False,False,False,False,False,False,False,False,False,32.733577020694,35.0402790327433,0.9,1709.0,656.1,True,1,1,False,False,False,False,,True,False,False,,328,,16.4,110,W,NE,0.22,0.44,Calm,True,True,,1.13.10,DJI Mini 4 Pro,1581F6Z9C239E003,6TVFL8Q0M2X1GK,6UZBL9J021036E,5LRXL9FDG1010E,119.4,0.8,22.9,15.345408,4.921268,0,7551,DJI Mini 4 Pro,1581F6Z9C239E003,6TVFL8Q0M2X1GK,6UZBL9J021036E,5LRXL9FDG1010E,DJI Fly,,1.13.10,4725AB83-5210-5CA6-AA66-2BC4FE98263F,1581F6Z9C239E0037R3J,6TVFL8Q0M2X1GK,,6UZBL9J021036E,5LRXL9FDG1010E,,,,,,
6/11/2026,1:58:13.34 PM,0m 2.6s,2.6,32.7335771658654,35.0402759585523,0.3,0.3,0.6,1658,0.2,0,0,0,0,0,0,-1.11847,0,0.5,-0.9,-119.6,240.4,,Auto Takeoff,Auto Fly,,27,5,True,,Mini 4 Pro,True,False,,Smart,RC,False,True,False,,,True,,False,False,False,False,False,False,False,False,False,False,0,Follow Yaw,0,0,-136,224,False,False,False,False,False,False,,True,Card Too Slow,100,100,1024,1024,1024,1024,,False,False,False,False,False,0,False,False,False,False,72,7.782,2355,3291,7.782,False,3.895,3.887,0.008,False,False,3.314,117.3,117.3,117.3,,,,,,,,,Idle,,,,,,9,Go Home,False,False,False,False,False,False,False,False,False,False,False,False,32.733577020694,35.0402790327433,0.9,1709.0,656.1,True,1,1,False,False,False,False,,True,False,False,,328,,16.4,110,NW,E,0.22,0.44,Calm,False,False,,1.13.10,DJI Mini 4 Pro,1581F6Z9C239E003,6TVFL8Q0M2X1GK,6UZBL9J021036E,5LRXL9FDG1010E,119.4,0.8,22.9,15.345408,4.921268,0,7551,DJI Mini 4 Pro,1581F6Z9C239E003,6TVFL8Q0M2X1GK,6UZBL9J021036E,5LRXL9FDG1010E,DJI Fly,,1.13.10,4725AB83-5210-5CA6-AA66-2BC4FE98263F,1581F6Z9C239E0037R3J,6TVFL8Q0M2X1GK,,6UZBL9J021036E,5LRXL9FDG1010E,,,,,,
6/11/2026,1:58:13.44 PM,0m 2.7s,2.7,32.7335771711431,35.040275984504,0.3,0.3,0.9,1658,0.3,0,0,0,0,0,0,-0.894776,0,0.8,0.5,-119.5,240.5,,Auto Takeoff,Auto Fly,,27,5,True,,Mini 4 Pro,True,False,,Smart,RC,False,True,False,,,True,,False,False,False,False,False,False,False,False,False,False,0,Follow Yaw,0,0,-136,224,False,False,False,False,False,False,,True,Card Too Slow,100,100,1024,1024,1024,1024,,False,False,False,False,False,0,False,False,False,False,72,7.782,2355,3291,7.782,False,3.895,3.887,0.008,False,False,3.314,117.3,117.3,117.3,,,,,,,,,Idle,,,,,,9,Go Home,False,False,False,False,False,False,False,False,False,False,False,False,32.733577020694,35.0402790327433,0.9,1709.0,656.1,True,1,1,False,False,False,False,,True,False,False,,328,,16.4,110,NW,E,0.44,0.44,Calm,False,False,,1.13.10,DJI Mini 4 Pro,1581F6Z9C239E003,6TVFL8Q0M2X1GK,6UZBL9J021036E,5LRXL9FDG1010E,119.4,0.8,22.9,15.345408,4.921268,0,7551,DJI Mini 4 Pro,1581F6Z9C239E003,6TVFL8Q0M2X1GK,6UZBL9J021036E,5LRXL9FDG1010E,DJI Fly,,1.13.10,4725AB83-5210-5CA6-AA66-2BC4FE98263F,1581F6Z9C239E0037R3J,6TVFL8Q0M2X1GK,,6UZBL9J021036E,5LRXL9FDG1010E,,,,,,
6/11/2026,1:58:13.54 PM,0m 2.8s,2.8,32.733576765239,35.0402761844172,0.6,0.6,0.9,1659,0.4,0,0,0,0,0,0,-1.11847,0,0.2,1.6,-119.7,240.3,,Auto Takeoff,Auto Fly,,28,5,True,,Mini 4 Pro,True,False,,Smart,RC,False,True,False,,,True,,False,False,False,False,False,False,False,False,False,False,0,Follow Yaw,0,0,-136,224,False,False,False,False,False,False,,True,Card Too Slow,100,100,1024,1024,1024,1024,,False,False,False,False,False,0,False,False,False,False,72,7.782,2355,3291,7.782,False,3.895,3.887,0.008,False,False,3.314,117.3,117.3,117.3,,,,,,,,,Idle,,,,,,9,Go Home,False,False,False,False,False,False,False,False,False,False,False,False,32.7335771452343,35.0402761134882,0.1,1709.0,656.1,True,1,1,False,False,False,False,,True,False,False,,328,,16.4,110,NW,E,0.44,0.44,Calm,False,False,,1.13.10,DJI Mini 4 Pro,1581F6Z9C239E003,6TVFL8Q0M2X1GK,6UZBL9J021036E,5LRXL9FDG1010E,119.4,0.8,22.9,15.345408,4.921268,0,7551,DJI Mini 4 Pro,1581F6Z9C239E003,6TVFL8Q0M2X1GK,6UZBL9J021036E,5LRXL9FDG1010E,DJI Fly,,1.13.10,4725AB83-5210-5CA6-AA66-2BC4FE98263F,1581F6Z9C239E0037R3J,6TVFL8Q0M2X1GK,,6UZBL9J021036E,5LRXL9FDG1010E,,,,,Home Point Updated.,
6/11/2026,1:58:13.64 PM,0m 2.9s,2.9,32.7335766627691,35.0402762149318,0.6,0.6,0.9,1659,0.5,0,0,0,0,0,0,-1.11847,0,0.5,2,-119.6,240.4,,Auto Takeoff,Auto Fly,,28,5,True,,Mini 4 Pro,True,False,,Smart,RC,False,True,False,,,True,,False,False,False,False,False,False,False,False,False,False,0,Follow Yaw,0,0,-136,224,False,False,False,False,False,False,,True,Card Too Slow,100,100,1024,1024,1024,1024,,False,False,False,False,False,0,False,False,False,False,72,7.782,2355,3291,7.782,False,3.895,3.887,0.008,False,False,3.314,117.3,117.3,117.3,,,,,,,,,Idle,,,,,,9,Go Home,False,False,False,False,False,False,False,False,False,False,False,False,32.7335771452343,35.0402761134882,0.1,1709.0,656.1,True,1,1,False,False,False,False,,True,False,False,,328,,16.4,110,NW,E,0.44,0.44,Calm,False,False,,1.13.10,DJI Mini 4 Pro,1581F6Z9C239E003,6TVFL8Q0M2X1GK,6UZBL9J021036E,5LRXL9FDG1010E,119.4,0.8,22.9,15.345408,4.921268,0,7551,DJI Mini 4 Pro,1581F6Z9C239E003,6TVFL8Q0M2X1GK,6UZBL9J021036E,5LRXL9FDG1010E,DJI Fly,,1.13.10,4725AB83-5210-5CA6-AA66-2BC4FE98263F,1581F6Z9C239E0037R3J,6TVFL8Q0M2X1GK,,6UZBL9J021036E,5LRXL9FDG1010E,,,,,,
6/11/2026,1:58:13.74 PM,0m 3.0s,3.0,32.7335768997178,35.0402762832942,0.9,0.9,1.3,1659,0.5,0,0,0,0,0,0,-1.11847,0,-0.5,2,-119.3,240.7,,Auto Takeoff,Auto Fly,,28,5,True,,Mini 4 Pro,True,False,,Smart,RC,False,True,False,,,True,,False,False,False,False,False,False,False,False,False,False,0,Follow Yaw,0,0,-136,224,False,False,False,False,False,False,,True,Card Too Slow,100,100,1024,1024,1024,1024,,False,False,False,False,False,0,False,False,False,False,72,7.782,2355,3291,7.782,False,3.895,3.887,0.008,False,False,3.314,117.3,117.3,117.3,,,,,,,,,Idle,,,,,,9,Go Home,False,False,False,False,False,False,False,False,False,False,False,False,32.7335771452343,35.0402761134882,0.1,1709.0,656.1,True,1,1,False,False,False,False,,True,False,False,,328,,16.4,110,NW,E,0.44,0.44,Calm,False,True,,1.13.10,DJI Mini 4 Pro,1581F6Z9C239E003,6TVFL8Q0M2X1GK,6UZBL9J021036E,5LRXL9FDG1010E,119.4,0.8,22.9,15.345408,4.921268,0,7551,DJI Mini 4 Pro,1581F6Z9C239E003,6TVFL8Q0M2X1GK,6UZBL9J021036E,5LRXL9FDG1010E,DJI Fly,,1.13.10,4725AB83-5210-5CA6-AA66-2BC4FE98263F,1581F6Z9C239E0037R3J,6TVFL8Q0M2X1GK,,6UZBL9J021036E,5LRXL9FDG1010E,,,,,,
6/11/2026,1:58:13.84 PM,0m 3.1s,3.1,32.7335768927951,35.0402763688899,0.9,0.9,1.3,1659,0.6,0,0,0,0,0,0,-1.11847,0,-0.2,2.3,-119.3,240.7,,Auto Takeoff,Auto Fly,,28,5,True,,Mini 4 Pro,True,False,,Smart,RC,False,True,False,,,True,,False,False,False,False,False,False,False,False,False,False,0,Follow Yaw,0,0,-136,224,False,False,False,False,False,True,,True,Card Too Slow,100,100,1024,1024,1024,1024,,False,False,False,False,False,0,False,False,False,False,72,7.782,2355,3291,7.782,False,3.895,3.887,0.008,False,False,3.314,117.3,117.3,117.3,,,,,,,,,Idle,,,,,,9,Go Home,False,False,False,False,False,False,False,False,False,False,False,False,32.7335771452343,35.0402761134882,0.1,1709.0,656.1,True,1,1,False,False,False,False,,True,False,False,,328,,16.4,110,NW,E,0.67,0.67,Calm,False,False,,1.13.10,DJI Mini 4 Pro,1581F6Z9C239E003,6TVFL8Q0M2X1GK,6UZBL9J021036E,5LRXL9FDG1010E,119.4,0.8,22.9,15.345408,4.921268,0,7551,DJI Mini 4 Pro,1581F6Z9C239E003,6TVFL8Q0M2X1GK,6UZBL9J021036E,5LRXL9FDG1010E,DJI Fly,,1.13.10,4725AB83-5210-5CA6-AA66-2BC4FE98263F,1581F6Z9C239E0037R3J,6TVFL8Q0M2X1GK,,6UZBL9J021036E,5LRXL9FDG1010E,,,,,,
6/11/2026,1:58:13.94 PM,0m 3.2s,3.2,32.7335768701078,35.0402765437885,1.3,1.3,1.6,1659,0.6,0,0,0,0,0,0,-1.11847,0,0.4,1.4,-119.6,240.4,,Auto Takeoff,Auto Fly,,28,5,True,,Mini 4 Pro,True,False,,Smart,RC,False,True,False,,,True,,False,False,False,False,False,False,False,False,False,False,0,Follow Yaw,0,0,-136,224,False,False,False,False,False,True,,True,Card Too Slow,100,100,1024,1024,1024,1024,,False,False,False,False,False,0,False,False,False,False,72,7.782,2355,3291,7.782,False,3.895,3.887,0.008,False,False,3.314,117.3,117.3,117.3,,,,,,,,,Idle,,,,,,9,Go Home,False,False,False,False,False,False,False,False,False,False,False,False,32.7335771452343,35.0402761134882,0.1,1709.0,656.1,True,1,1,False,False,False,False,,True,False,False,,328,,16.4,110,NW,E,0.67,0.67,Calm,False,False,,1.13.10,DJI Mini 4 Pro,1581F6Z9C239E003,6TVFL8Q0M2X1GK,6UZBL9J021036E,5LRXL9FDG1010E,119.4,0.8,22.9,15.345408,4.921268,0,7551,DJI Mini 4 Pro,1581F6Z9C239E003,6TVFL8Q0M2X1GK,6UZBL9J021036E,5LRXL9FDG1010E,DJI Fly,,1.13.10,4725AB83-5210-5CA6-AA66-2BC4FE98263F,1581F6Z9C239E0037R3J,6TVFL8Q0M2X1GK,,6UZBL9J021036E,5LRXL9FDG1010E,,,,,,
6/11/2026,1:58:14.04 PM,0m 3.3s,3.3,32.7335769282997,35.0402765934918,1.3,1.3,1.3,1659,0.7,0,0,0,0,0,0,-1.11847,0,-0.4,0,-119.5,240.5,,Auto Takeoff,Auto Fly,,28,5,True,,Mini 4 Pro,True,False,,Smart,RC,False,True,False,,,True,,False,False,False,False,False,False,False,False,False,False,0,Follow Yaw,0,0,-136,224,False,False,False,False,False,True,,True,Card Too Slow,100,100,1024,1024,1024,1024,,False,False,False,False,False,0,False,False,False,False,72,7.782,2355,3291,7.782,False,3.895,3.887,0.008,False,False,3.314,117.3,117.3,117.3,,,,,,,,,Idle,,,,,,9,Go Home,False,False,False,False,False,False,False,False,False,False,False,False,32.7335771452343,35.0402761134882,0.1,1709.0,656.1,True,1,1,False,False,False,False,,True,False,False,,328,,16.4,110,NW,E,0.67,0.67,Calm,False,False,,1.13.10,DJI Mini 4 Pro,1581F6Z9C239E003,6TVFL8Q0M2X1GK,6UZBL9J021036E,5LRXL9FDG1010E,119.4,0.8,22.9,15.345408,4.921268,0,7551,DJI Mini 4 Pro,1581F6Z9C239E003,6TVFL8Q0M2X1GK,6UZBL9J021036E,5LRXL9FDG1010E,DJI Fly,,1.13.10,4725AB83-5210-5CA6-AA66-2BC4FE98263F,1581F6Z9C239E0037R3J,6TVFL8Q0M2X1GK,,6UZBL9J021036E,5LRXL9FDG1010E,,,,,,
6/11/2026,1:58:14.14 PM,0m 3.4s,3.4,32.7335770409823,35.0402766728134,1.6,1.6,1.6,1659,0.7,0,0,0,0,0,0,-0.894776,0,-1.3,0.4,-119.3,240.7,,Auto Takeoff,Auto Fly,,28,5,True,,Mini 4 Pro,True,False,,Smart,RC,False,True,False,,,True,,False,False,False,False,False,False,False,False,False,False,0,Follow Yaw,0,0,-136,224,False,False,False,False,False,True,,True,Card Too Slow,100,100,1024,1024,1024,1024,,False,False,False,False,False,0,False,False,False,False,72,7.782,2355,3291,7.782,False,3.895,3.887,0.008,False,False,3.314,117.3,117.3,117.3,,,,,,,,,Idle,,,,,,9,Go Home,False,False,False,False,False,False,False,False,False,False,False,False,32.7335771452343,35.0402761134882,0.1,1709.0,656.1,True,1,1,False,False,False,False,,True,False,False,,328,,16.4,110,W,NE,0.67,0.67,Calm,True,False,,1.13.10,DJI Mini 4 Pro,1581F6Z9C239E003,6TVFL8Q0M2X1GK,6UZBL9J021036E,5LRXL9FDG1010E,119.4,0.8,22.9,15.345408,4.921268,0,7551,DJI Mini 4 Pro,1581F6Z9C239E003,6TVFL8Q0M2X1GK,6UZBL9J021036E,5LRXL9FDG1010E,DJI Fly,,1.13.10,4725AB83-5210-5CA6-AA66-2BC4FE98263F,1581F6Z9C239E0037R3J,6TVFL8Q0M2X1GK,,6UZBL9J021036E,5LRXL9FDG1010E,,,,,,
6/11/2026,1:58:14.24 PM,0m 3.5s,3.5,32.7335771097982,35.0402767070354,1.9,1.9,1.6,1660,0.7,0,0,0,0,0,0,-1.11847,0,-1.7,0.5,-119.2,240.8,,Auto Takeoff,Auto Fly,,28,5,True,,Mini 4 Pro,True,False,,Smart,RC,False,True,False,,,True,,False,False,False,False,False,False,False,False,False,False,0,Follow Yaw,0,0,-136,224,False,False,False,False,False,True,,True,Card Too Slow,100,100,1024,1024,1024,1024,,False,False,False,False,False,0,False,False,False,False,72,7.721,2355,3291,7.721,False,3.868,3.853,0.015,False,False,3.314,117.3,117.3,117.3,,,,,,,,,Idle,,,,,,9,Go Home,False,False,False,False,False,False,False,False,False,False,False,False,32.7335771452343,35.0402761134882,0.1,1709.0,656.1,True,1,1,False,False,False,False,,True,False,False,,328,,16.4,110,W,NE,0.67,0.67,Calm,True,False,,1.13.10,DJI Mini 4 Pro,1581F6Z9C239E003,6TVFL8Q0M2X1GK,6UZBL9J021036E,5LRXL9FDG1010E,119.4,0.8,22.9,15.345408,4.921268,0,7551,DJI Mini 4 Pro,1581F6Z9C239E003,6TVFL8Q0M2X1GK,6UZBL9J021036E,5LRXL9FDG1010E,DJI Fly,,1.13.10,4725AB83-5210-5CA6-AA66-2BC4FE98263F,1581F6Z9C239E0037R3J,6TVFL8Q0M2X1GK,,6UZBL9J021036E,5LRXL9FDG1010E,,,,,,
6/11/2026,1:58:14.34 PM,0m 3.6s,3.6,32.7335771065768,35.0402767046724,1.9,1.9,1.9,1660,0.7,0.223694,0.223694,0.223694,0.223694,0,0,-1.11847,0,-1.8,-0.7,-119.2,240.8,211.6,Auto Takeoff,Auto Fly,,28,5,True,,Mini 4 Pro,True,False,,Smart,RC,False,True,False,,,True,,False,False,False,False,False,False,False,False,False,False,0,Follow Yaw,0,0,-136,224,False,False,False,False,False,True,,True,Card Too Slow,100,100,1024,1024,1024,1024,,False,False,False,False,False,0,False,False,False,False,72,7.721,2355,3291,7.721,False,3.868,3.853,0.015,False,False,3.314,117.3,117.3,117.3,,,,,,,,,Idle,,,,,,9,Go Home,False,False,False,False,False,False,False,False,False,False,False,False,32.7335771452343,35.0402761134882,0.1,1709.0,656.1,True,1,1,False,False,False,False,,True,False,False,,328,,16.4,110,W,NE,0.67,0.67,Calm,True,True,,1.13.10,DJI Mini 4 Pro,1581F6Z9C239E003,6TVFL8Q0M2X1GK,6UZBL9J021036E,5LRXL9FDG1010E,119.4,0.8,22.9,15.345408,4.921268,0,7551,DJI Mini 4 Pro,1581F6Z9C239E003,6TVFL8Q0M2X1GK,6UZBL9J021036E,5LRXL9FDG1010E,DJI Fly,,1.13.10,4725AB83-5210-5CA6-AA66-2BC4FE98263F,1581F6Z9C239E0037R3J,6TVFL8Q0M2X1GK,,6UZBL9J021036E,5LRXL9FDG1010E,,,,,,
6/11/2026,1:58:14.44 PM,0m 3.7s,3.7,32.7335771945843,35.0402766616506,2.2,2.2,1.9,1660,0.8,0.223694,0.223694,0.223694,0.223694,0,0,-1.11847,0,-2.3,-1.8,-119.3,240.7,337.6,Auto Takeoff,Auto Fly,,28,5,True,,Mini 4 Pro,True,False,,Smart,RC,False,True,False,,,True,,False,False,False,False,False,False,False,False,False,False,0,Follow Yaw,0,0,-136,224,False,False,False,False,False,True,,True,Card Too Slow,100,100,1024,1024,1024,1024,,False,False,False,False,False,0,False,False,False,False,72,7.721,2355,3291,7.721,False,3.868,3.853,0.015,False,False,3.314,117.3,117.3,117.3,,,,,,,,,Idle,,,,,,9,Go Home,False,False,False,False,False,False,False,False,False,False,False,False,32.7335771452343,35.0402761134882,0.1,1709.0,656.1,True,1,1,False,False,False,False,,True,False,False,,328,,16.4,110,W,NE,0.67,0.67,Calm,True,False,,1.13.10,DJI Mini 4 Pro,1581F6Z9C239E003,6TVFL8Q0M2X1GK,6UZBL9J021036E,5LRXL9FDG1010E,119.4,0.8,22.9,15.345408,4.921268,0,7551,DJI Mini 4 Pro,1581F6Z9C239E003,6TVFL8Q0M2X1GK,6UZBL9J021036E,5LRXL9FDG1010E,DJI Fly,,1.13.10,4725AB83-5210-5CA6-AA66-2BC4FE98263F,1581F6Z9C239E0037R3J,6TVFL8Q0M2X1GK,,6UZBL9J021036E,5LRXL9FDG1010E,,,,,,
6/11/2026,1:58:14.50 PM,0m 3.8s,3.8,32.7335773584676,35.0402766305249,2.2,2.2,1.9,1660,0.8,0,0.223694,0,0.223694,0,0,-1.11847,0,-1.1,-2.1,-119.3,240.7,,Auto Takeoff,Auto Fly,,28,5,True,,Mini 4 Pro,True,False,,Smart,RC,False,True,False,,,True,,False,False,False,False,False,False,False,False,False,False,0,Follow Yaw,0,0,-136,224,False,False,False,False,False,True,,True,Card Too Slow,100,100,1024,1024,1076,1024,N,False,False,False,False,False,0,False,False,False,False,72,7.721,2355,3291,7.721,False,3.868,3.853,0.015,False,False,3.314,117.3,117.3,117.3,,,,,,,,,Idle,,,,,,9,Go Home,False,False,False,False,False,False,False,False,False,False,False,False,32.7335771452343,35.0402761134882,0.1,1709.0,656.1,True,1,1,False,False,False,False,,True,False,False,,328,,16.4,110,W,NE,0.67,0.67,Calm,True,False,,1.13.10,DJI Mini 4 Pro,1581F6Z9C239E003,6TVFL8Q0M2X1GK,6UZBL9J021036E,5LRXL9FDG1010E,119.4,0.8,22.9,15.345408,4.921268,0,7551,DJI Mini 4 Pro,1581F6Z9C239E003,6TVFL8Q0M2X1GK,6UZBL9J021036E,5LRXL9FDG1010E,DJI Fly,,1.13.10,4725AB83-5210-5CA6-AA66-2BC4FE98263F,1581F6Z9C239E0037R3J,6TVFL8Q0M2X1GK,,6UZBL9J021036E,5LRXL9FDG1010E,,,,,,
6/11/2026,1:58:14.60 PM,0m 3.9s,3.9,32.7335774389356,35.040276564118,2.6,2.6,1.9,1660,0.9,0,0.223694,0,0.223694,0,0,-1.11847,0,-0.6,-2.7,-119.4,240.6,,Auto Takeoff,Auto Fly,,28,5,True,,Mini 4 Pro,True,False,,Smart,RC,False,True,False,,,True,,False,False,False,False,False,False,False,False,False,False,0,Follow Yaw,0,0,-136,224,False,False,False,False,False,True,,True,Card Too Slow,100,100,1024,1024,1358,1024,N,False,False,False,False,False,0,False,False,False,False,72,7.721,2355,3291,7.721,False,3.868,3.853,0.015,False,False,3.314,117.3,117.3,117.3,,,,,,,,,Idle,,,,,,9,Go Home,False,False,False,False,False,False,False,False,False,False,False,False,32.7335771452343,35.0402761134882,0.1,1709.0,656.1,True,1,1,False,False,False,False,,True,False,False,,328,,16.4,110,SW,N,0.67,0.67,Calm,True,False,,1.13.10,DJI Mini 4 Pro,1581F6Z9C239E003,6TVFL8Q0M2X1GK,6UZBL9J021036E,5LRXL9FDG1010E,119.4,0.8,22.9,15.345408,4.921268,0,7551,DJI Mini 4 Pro,1581F6Z9C239E003,6TVFL8Q0M2X1GK,6UZBL9J021036E,5LRXL9FDG1010E,DJI Fly,,1.13.10,4725AB83-5210-5CA6-AA66-2BC4FE98263F,1581F6Z9C239E0037R3J,6TVFL8Q0M2X1GK,,6UZBL9J021036E,5LRXL9FDG1010E,,,,,,
6/11/2026,1:58:14.70 PM,0m 4.0s,4.0,32.7335775860261,35.0402763477863,2.6,2.6,1.9,1660,0.9,0,0.223694,0,0.223694,0,0,-1.11847,0,-1.9,-2.5,-119.3,240.7,,Auto Takeoff,Auto Fly,,28,5,True,,Mini 4 Pro,True,False,,Smart,RC,False,True,False,,,True,,False,False,False,False,False,False,False,False,False,False,0,Follow Yaw,0,0,-136,224,False,False,False,False,False,True,,True,Card Too Slow,100,100,1024,1024,1468,1024,N,False,False,False,False,False,0,False,False,False,False,72,7.721,2355,3291,7.721,False,3.868,3.853,0.015,False,False,3.314,117.3,117.3,117.3,,,,,,,,,Idle,,,,,,9,Go Home,False,False,False,False,False,False,False,False,False,False,False,False,32.7335771452343,35.0402761134882,0.1,1709.0,656.1,True,1,1,False,False,False,False,,True,False,False,,328,,16.4,110,SW,N,0.67,0.67,Calm,True,False,,1.13.10,DJI Mini 4 Pro,1581F6Z9C239E003,6TVFL8Q0M2X1GK,6UZBL9J021036E,5LRXL9FDG1010E,119.4,0.8,22.9,15.345408,4.921268,0,7551,DJI Mini 4 Pro,1581F6Z9C239E003,6TVFL8Q0M2X1GK,6UZBL9J021036E,5LRXL9FDG1010E,DJI Fly,,1.13.10,4725AB83-5210-5CA6-AA66-2BC4FE98263F,1581F6Z9C239E0037R3J,6TVFL8Q0M2X1GK,,6UZBL9J021036E,5LRXL9FDG1010E,,,,,,
6/11/2026,1:58:14.80 PM,0m 4.1s,4.1,32.7335776480564,35.0402763026459,2.9,2.9,1.9,1661,1.0,0,0.223694,0,0.223694,0,0,-1.342164,0,-0.7,-2.7,-119.5,240.5,,Auto Takeoff,Auto Fly,,28,5,True,,Mini 4 Pro,True,False,,Smart,RC,False,True,False,,,True,,False,False,False,False,False,False,False,False,False,False,0,Follow Yaw,0,0,-136,224,False,False,False,False,False,True,,True,Card Too Slow,100,100,1024,1024,1432,1024,N,False,False,False,False,False,0,False,False,False,False,72,7.721,2355,3291,7.721,False,3.868,3.853,0.015,False,False,3.314,117.3,117.3,117.3,,,,,,,,,Idle,,,,,,9,Go Home,False,False,False,False,False,False,False,False,False,False,False,False,32.7335771452343,35.0402761134882,0.1,1709.0,656.1,True,1,1,False,False,False,False,,True,False,False,,328,,16.4,110,SW,N,0.67,0.67,Calm,True,False,,1.13.10,DJI Mini 4 Pro,1581F6Z9C239E003,6TVFL8Q0M2X1GK,6UZBL9J021036E,5LRXL9FDG1010E,119.4,0.8,22.9,15.345408,4.921268,0,7551,DJI Mini 4 Pro,1581F6Z9C239E003,6TVFL8Q0M2X1GK,6UZBL9J021036E,5LRXL9FDG1010E,DJI Fly,,1.13.10,4725AB83-5210-5CA6-AA66-2BC4FE98263F,1581F6Z9C239E0037R3J,6TVFL8Q0M2X1GK,,6UZBL9J021036E,5LRXL9FDG1010E,,,,,,
6/11/2026,1:58:14.90 PM,0m 4.2s,4.2,32.7335776377751,35.0402763395568,3.2,3.2,1.9,1661,1.0,0,0.223694,0,0.223694,0,0,-2.013246,0,0.1,-2.4,-119.7,240.3,,Auto Takeoff,Auto Fly,,28,5,True,,Mini 4 Pro,True,False,,Smart,RC,False,True,False,,,True,,False,False,False,False,False,False,False,False,False,False,0,Follow Yaw,0,0,-136,224,False,False,False,False,False,True,,True,Card Too Slow,100,100,1024,1024,1024,1024,N,False,False,False,False,False,0,False,False,False,False,72,7.721,2355,3291,7.721,False,3.868,3.853,0.015,False,False,3.314,117.3,117.3,117.3,,,,,,,,,Idle,,,,,,9,Go Home,False,False,False,False,False,False,False,False,False,False,False,False,32.7335771452343,35.0402761134882,0.1,1709.0,656.1,True,1,1,False,False,False,False,,True,False,False,,328,,16.4,110,SW,N,0.67,0.67,Calm,True,False,,1.13.10,DJI Mini 4 Pro,1581F6Z9C239E003,6TVFL8Q0M2X1GK,6UZBL9J021036E,5LRXL9FDG1010E,119.4,0.8,22.9,15.345408,4.921268,0,7551,DJI Mini 4 Pro,1581F6Z9C239E003,6TVFL8Q0M2X1GK,6UZBL9J021036E,5LRXL9FDG1010E,DJI Fly,,1.13.10,4725AB83-5210-5CA6-AA66-2BC4FE98263F,1581F6Z9C239E0037R3J,6TVFL8Q0M2X1GK,,6UZBL9J021036E,5LRXL9FDG1010E,,,,,,
6/11/2026,1:58:15.00 PM,0m 4.3s,4.3,32.7335776374324,35.0402763472974,3.6,3.6,2.2,1661,1.0,0,0.223694,0,0.223694,0,0,-2.684328,0,-1.3,-1.2,-119.5,240.5,,Auto Takeoff,Auto Fly,,28,5,True,,Mini 4 Pro,True,False,,Smart,RC,False,True,False,,,True,,False,False,False,False,False,False,False,False,False,False,0,Follow Yaw,0,0,-136,224,False,False,False,False,False,True,,True,Card Too Slow,100,100,1024,1024,1024,1024,N,False,False,False,False,False,0,False,False,False,False,72,7.721,2355,3291,7.721,False,3.868,3.853,0.015,False,False,3.314,117.3,117.3,117.3,,,,,,,,,Idle,,,,,,9,Go Home,False,False,False,False,False,False,False,False,False,False,False,False,32.7335771452343,35.0402761134882,0.1,1709.0,656.1,True,1,1,False,False,False,False,,True,False,False,,328,,16.4,110,SW,N,0.67,0.67,Calm,True,False,,1.13.10,DJI Mini 4 Pro,1581F6Z9C239E003,6TVFL8Q0M2X1GK,6UZBL9J021036E,5LRXL9FDG1010E,119.4,0.8,22.9,15.345408,4.921268,0,7551,DJI Mini 4 Pro,1581F6Z9C239E003,6TVFL8Q0M2X1GK,6UZBL9J021036E,5LRXL9FDG1010E,DJI Fly,,1.13.10,4725AB83-5210-5CA6-AA66-2BC4FE98263F,1581F6Z9C239E0037R3J,6TVFL8Q0M2X1GK,,6UZBL9J021036E,5LRXL9FDG1010E,,,,,,
6/11/2026,1:58:15.10 PM,0m 4.4s,4.4,32.7335776183093,35.0402762132207,3.9,3.9,2.2,1662,1.0,0,0.223694,0,0.223694,0,0,-2.908022,0,-2.5,-0.5,-119.5,240.5,,Auto Takeoff,Auto Fly,,27,5,True,,Mini 4 Pro,True,False,,Smart,RC,False,True,False,,,True,,False,False,False,False,False,False,False,False,False,False,0,Follow Yaw,0,0,-136,224,False,False,False,False,False,True,,True,Card Too Slow,100,100,1024,1024,1024,1024,N,False,False,False,False,False,0,False,False,False,False,72,7.721,2355,3291,7.721,False,3.868,3.853,0.015,False,False,3.314,117.3,117.3,117.3,,,,,,,,,Idle,,,,,,9,Go Home,False,False,False,False,False,False,False,False,False,False,False,False,32.7335771452343,35.0402761134882,0.1,1709.0,656.1,True,1,1,False,False,False,False,,True,False,False,,328,,16.4,110,SW,N,0.89,0.89,Calm,True,True,,1.13.10,DJI Mini 4 Pro,1581F6Z9C239E003,6TVFL8Q0M2X1GK,6UZBL9J021036E,5LRXL9FDG1010E,119.4,0.8,22.9,15.345408,4.921268,0,7551,DJI Mini 4 Pro,1581F6Z9C239E003,6TVFL8Q0M2X1GK,6UZBL9J021036E,5LRXL9FDG1010E,DJI Fly,,1.13.10,4725AB83-5210-5CA6-AA66-2BC4FE98263F,1581F6Z9C239E0037R3J,6TVFL8Q0M2X1GK,,6UZBL9J021036E,5LRXL9FDG1010E,,,,,,
6/11/2026,1:58:15.21 PM,0m 4.5s,4.5,32.7335775897959,35.0402761913838,4.2,4.2,2.9,1662,1.0,0,0.223694,0,0.223694,0,0,-2.23694,0,-1,-1.3,-119.7,240.3,,Auto Takeoff,Auto Fly,,27,5,True,,Mini 4 Pro,True,False,,Smart,RC,False,True,False,,,True,,False,False,False,False,False,False,False,False,False,False,0,Follow Yaw,0,0,-136,224,False,False,False,False,False,True,,True,Card Too Slow,100,100,1024,1024,1024,1024,N,False,False,False,False,False,0,False,False,False,False,72,7.721,2353,3291,7.721,False,3.868,3.853,0.015,False,False,6.21,117.3,117.3,117.3,,,,,,,,,Idle,,,,,,9,Go Home,False,False,False,False,False,False,False,False,False,False,False,False,32.7335771452343,35.0402761134882,0.1,1709.0,656.1,True,1,1,False,False,False,False,,True,False,False,,328,,16.4,110,S,NW,0.89,0.89,Calm,True,True,,1.13.10,DJI Mini 4 Pro,1581F6Z9C239E003,6TVFL8Q0M2X1GK,6UZBL9J021036E,5LRXL9FDG1010E,119.4,0.8,22.9,15.345408,4.921268,0,7551,DJI Mini 4 Pro,1581F6Z9C239E003,6TVFL8Q0M2X1GK,6UZBL9J021036E,5LRXL9FDG1010E,DJI Fly,,1.13.10,4725AB83-5210-5CA6-AA66-2BC4FE98263F,1581F6Z9C239E0037R3J,6TVFL8Q0M2X1GK,,6UZBL9J021036E,5LRXL9FDG1010E,,,,,,
6/11/2026,1:58:15.31 PM,0m 4.6s,4.6,32.7335773632655,35.0402762302095,4.5,4.5,2.9,1662,1.1,0,0.223694,0,0.223694,0,0,-1.565858,0,0,-1.6,-119.7,240.3,,Auto Takeoff,Auto Fly,,26,5,True,,Mini 4 Pro,True,False,,Smart,RC,False,True,False,,,True,,False,False,False,False,False,False,False,False,False,False,0,Follow Yaw,0,0,-136,224,False,False,False,False,False,True,,True,Card Too Slow,100,100,1024,1024,1024,1024,N,False,False,False,False,False,0,False,False,False,False,72,7.721,2353,3291,7.721,False,3.868,3.853,0.015,False,False,6.21,117.3,117.3,117.3,,,,,,,,,Idle,,,,,,9,Go Home,False,False,False,False,False,False,False,False,False,False,False,False,32.7335771452343,35.0402761134882,0.0,1709.0,656.1,True,1,1,False,False,False,False,,True,False,False,,328,,16.4,110,S,NW,0.89,0.89,Calm,True,True,,1.13.10,DJI Mini 4 Pro,1581F6Z9C239E003,6TVFL8Q0M2X1GK,6UZBL9J021036E,5LRXL9FDG1010E,119.4,0.8,22.9,15.345408,4.921268,0,7551,DJI Mini 4 Pro,1581F6Z9C239E003,6TVFL8Q0M2X1GK,6UZBL9J021036E,5LRXL9FDG1010E,DJI Fly,,1.13.10,4725AB83-5210-5CA6-AA66-2BC4FE98263F,1581F6Z9C239E0037R3J,6TVFL8Q0M2X1GK,,6UZBL9J021036E,5LRXL9FDG1010E,,,,,,
6/11/2026,1:58:15.41 PM,0m 4.7s,4.7,32.7335773394815,35.0402762162355,4.9,4.9,2.2,1663,1.1,0,0.223694,0,0.223694,0,0,-1.11847,0,0.2,-1.4,-119.6,240.4,,Auto Takeoff,Auto Fly,,26,5,True,,Mini 4 Pro,True,False,,Smart,RC,False,True,False,,,True,,False,False,False,False,False,False,False,False,False,False,0,Follow Yaw,0,0,-136,224,False,False,False,False,False,True,,True,Card Too Slow,100,100,1024,1024,1192,1024,N,False,False,False,False,False,0,False,False,False,False,72,7.721,2353,3291,7.721,False,3.868,3.853,0.015,False,False,6.21,117.3,117.3,117.3,,,,,,,,,Idle,,,,,,9,Go Home,False,False,False,False,False,False,False,False,False,False,False,False,32.7335771452343,35.0402761134882,0.0,1709.0,656.1,True,1,1,False,False,False,False,,True,False,False,,328,,16.4,110,S,NW,0.89,0.89,Calm,True,True,,1.13.10,DJI Mini 4 Pro,1581F6Z9C239E003,6TVFL8Q0M2X1GK,6UZBL9J021036E,5LRXL9FDG1010E,119.4,0.8,22.9,15.345408,4.921268,0,7551,DJI Mini 4 Pro,1581F6Z9C239E003,6TVFL8Q0M2X1GK,6UZBL9J021036E,5LRXL9FDG1010E,DJI Fly,,1.13.10,4725AB83-5210-5CA6-AA66-2BC4FE98263F,1581F6Z9C239E0037R3J,6TVFL8Q0M2X1GK,,6UZBL9J021036E,5LRXL9FDG1010E,,,,,,
6/11/2026,1:58:15.51 PM,0m 4.8s,4.8,32.733577444556,35.04027620328,4.9,4.9,2.6,1663,1.2,0,0.223694,0,0.223694,0,0,-1.11847,0,0.1,-1.4,-119.6,240.4,,Auto Takeoff,Auto Fly,,28,5,True,,Mini 4 Pro,True,False,,Smart,RC,False,True,False,,,True,,False,False,False,False,False,False,False,False,False,False,0,Follow Yaw,0,0,-136,224,False,False,False,False,False,True,,True,Card Too Slow,100,100,1024,1024,1275,1024,N,False,False,False,False,False,0,False,False,False,False,72,7.721,2353,3291,7.721,False,3.868,3.853,0.015,False,False,6.21,117.3,117.3,117.3,,,,,,,,,Idle,,,,,,9,Go Home,False,False,False,False,False,False,False,False,False,False,False,False,32.7335771452343,35.0402761134882,0.1,1709.0,656.1,True,1,1,False,False,False,False,,True,False,False,,328,,16.4,110,S,NW,1.11,1.11,Calm,True,False,,1.13.10,DJI Mini 4 Pro,1581F6Z9C239E003,6TVFL8Q0M2X1GK,6UZBL9J021036E,5LRXL9FDG1010E,119.4,0.8,22.9,15.345408,4.921268,0,7551,DJI Mini 4 Pro,1581F6Z9C239E003,6TVFL8Q0M2X1GK,6UZBL9J021036E,5LRXL9FDG1010E,DJI Fly,,1.13.10,4725AB83-5210-5CA6-AA66-2BC4FE98263F,1581F6Z9C239E0037R3J,6TVFL8Q0M2X1GK,,6UZBL9J021036E,5LRXL9FDG1010E,,,,,,
6/11/2026,1:58:15.61 PM,0m 4.9s,4.9,32.7335774525754,35.0402762196577,5.2,5.2,2.2,1663,1.2,0,0.223694,0,0.223694,0,0,-1.11847,0,0,-1.5,-119.6,240.4,,Auto Takeoff,Auto Fly,,28,5,True,,Mini 4 Pro,True,False,,Smart,RC,False,True,False,,,True,,False,False,False,False,False,False,False,False,False,False,0,Follow Yaw,0,0,-136,224,False,False,False,False,False,True,,True,Card Too Slow,100,100,1024,1024,1272,1024,N,False,False,False,False,False,0,False,False,False,False,72,7.721,2353,3291,7.721,False,3.868,3.853,0.015,False,False,6.21,117.3,117.3,117.3,,,,,,,,,Idle,,,,,,9,Go Home,False,False,False,False,False,False,False,False,False,False,False,False,32.7335771452343,35.0402761134882,0.1,1709.0,656.1,True,1,1,False,False,False,False,,True,False,False,,328,,16.4,110,S,NW,1.11,1.11,Calm,True,False,,1.13.10,DJI Mini 4 Pro,1581F6Z9C239E003,6TVFL8Q0M2X1GK,6UZBL9J021036E,5LRXL9FDG1010E,119.4,0.8,22.9,15.345408,4.921268,0,7551,DJI Mini 4 Pro,1581F6Z9C239E003,6TVFL8Q0M2X1GK,6UZBL9J021036E,5LRXL9FDG1010E,DJI Fly,,1.13.10,4725AB83-5210-5CA6-AA66-2BC4FE98263F,1581F6Z9C239E0037R3J,6TVFL8Q0M2X1GK,,6UZBL9J021036E,5LRXL9FDG1010E,,,,,,
